,anlegg_nr,anlegg_navn,etat,opprettet,nedlagt,type,kno,adresse,postnr,regine,lon_utl,lat_utl,lon_anl,lat_anl,status
7,0805AL30,Oklungen RA,,,,RENSEANLEGG,,,,016.32,,,,,
17,0301AL32,Kikutstua,,,,RENSEANLEGG,0301,,,006.D22,,,10.655419004,60.0764072934,
18,0904AL05,Drottningborg RA,,,,RENSEANLEGG,0904,,,019.215,,,8.64583401506,58.3461616012,
19,1046AL11,Nye Tonstad renseanlegg,,,,RENSEANLEGG,1046,,,026.D42,,,6.69751439439,58.6624481332,
20,1122AL14,Dirdal/Gilja,,,,RENSEANLEGG,1122,,,030.2A1,,,6.1872571034,58.8330215981,
21,1133AL27,Hjelmeland Vågen Renseanlegg,,,,RENSEANLEGG,1133,,,033.11,,,4.51125611554,0.0,
22,1134AL23,Vanvik slamavskiljar,,,,RENSEANLEGG,1134,,,036.32,,,6.36447175872,59.5440893937,
23,1134AL24,Nesflaten reinseanlegg,,,,RENSEANLEGG,1134,,,036.B90,,,6.81626918749,59.6481239833,
24,1134AL26,Hålandsosen Erfjord,,,,RENSEANLEGG,1134,,,035.712,,,6.23943170822,59.3463905178,
25,1216AL16,Lavunes - Førde Nord,,,,RENSEANLEGG,1216,,,039.9,,,5.4728486689,59.6191059591,
26,1228AL20,Seljestad avløpsrenseanlegg,,,,RENSEANLEGG,1228,,,048.EZ,,,6.61831481422,59.9051238314,
27,1228AL21,Håra avløpsrenseanlegg,,,,RENSEANLEGG,1228,,,036.E4A0,,,6.77225917733,59.8098585953,
28,1231AL37,NÅ,,,,RENSEANLEGG,1231,,,048.21,,,6.57423698125,60.2600003732,
29,1232AL15,Maurset RA,,,,RENSEANLEGG,1232,,,050.C2,,,7.33207913225,60.410912974,
30,1430AL13,Perhaugen renseanlegg,,,,RENSEANLEGG,1430,,,083.2Z,,,5.75200116301,61.3850438361,
31,1515AL14,Tjørvåg,,,,RENSEANLEGG,1515,,,096.310,,,5.73898420361,62.2927787348,
32,1525AL25,Stranda Avløpsrenseanlegg,,,,RENSEANLEGG,1525,,,098.31,,,0.0,0.0,
33,1535AL16,Fiksdal Pekaia,,,,RENSEANLEGG,1535,,,102.410,,,6.85687492918,62.6212381016,
34,1535AL17,Reitbukta Sør Tomrefjord,,,,RENSEANLEGG,1535,,,102.430,,,6.92833826219,62.5817634919,
35,1535AL18,Tresfjord Osholmen Nord,,,,RENSEANLEGG,1535,,,102.61,,,7.12804948005,62.5270249832,
36,1535AL20,"Daugstad, Sætre",,,,RENSEANLEGG,1535,,,102.620,,,7.14713179237,62.5577166759,
37,1535AL21,"Vikebukt, Bakneset",,,,RENSEANLEGG,1535,,,102.620,,,7.14948638032,62.6281393447,
38,1535AL22,Fiksdal Nord,,,,RENSEANLEGG,1535,,,102.410,,,6.85197089793,62.6240722965,
39,1804AL32,Laukeng,,,,RENSEANLEGG,1804,,,162.5,,,14.6127086486,67.2214839046,
40,1804AL33,Hellevik,,,,RENSEANLEGG,1804,,,162.3,,,14.5666202133,67.235933828,
41,0128AL04,Rudskogen,,,,RENSEANLEGG,,,,002.AD0,,,,,
42,0815AL51,Kirkesund renseanlegg,,,,RENSEANLEGG,,,,017.221,,,,,
43,1805AL18,Framneslia,,,,RENSEANLEGG,,,,174.42,,,,,
44,0101AL06,Kornsjø,,,,RENSEANLEGG,101,,,001.1J,11.66896,58.9351,,,
45,0101AL07,Remmendalen,,,,RENSEANLEGG,101,,,001.31Z,11.36011,59.1208,,,
46,0104AL01,Kambo,,,,RENSEANLEGG,104,,,003.20,10.6865,59.47445,,,
47,0105AL00,Alvim Renseanlegg,,,,RENSEANLEGG,105,,,002.A4,11.07577,59.273,,,
48,0105AL16,Isefoss Renseanlegg,,,,RENSEANLEGG,105,,,002.A5A,11.21795,59.3003,,,
49,0105AL20,Stenbekk Renseanlegg,,,,RENSEANLEGG,105,,,002.A2C,11.08921,59.3204,,,
50,0106AL00,Renseanlegg Øra,,,,RENSEANLEGG,106,,,002.12,10.96781,59.18309,,,
51,0106AL10,Lilleng Brukssenter,,,,RENSEANLEGG,106,,,002.2B,10.82278,59.22549,,,
52,0106AL20,Kvernhuset,,,,RENSEANLEGG,106,,,002.2A,10.93642,59.23765,,,
53,0118AL02,Skodsberg,,,,RENSEANLEGG,118,,,001.C5,11.69379,59.20863,,,
54,0119AL06,Bommen,,,,RENSEANLEGG,119,,,001.E32,11.65314,59.47452,,,
55,0119AL07,Grensen,,,,RENSEANLEGG,119,,,314.4B,11.74406,59.48521,,,
56,0121AL01,Rømskog,,,,RENSEANLEGG,121,,,314.B,11.8022,59.7387,,,
57,0124AL01,AHSA Interkommunale r,,,,RENSEANLEGG,124,,,002.B3,11.14841,59.56198,,,
58,0124AL02,Solbergfoss,,,,RENSEANLEGG,124,,,002.B7,11.16375,59.63538,,,
59,0125AL01,Mysen Renseanlegg,,,,RENSEANLEGG,125,,,002.B1A0,11.3162,59.55641,,,
60,0127AL14,Hoel (Meieribyen),,,,RENSEANLEGG,127,,,002.A8,11.16677,59.46196,,,
61,0128AL01,Bodal,,,,RENSEANLEGG,128,,,002.AB0,11.3385,59.41856,,,
62,0128AL02,Kirkeng,,,,RENSEANLEGG,128,,,002.ABA,11.42242,59.35953,,,
63,0128AL03,Østbygda,,,,RENSEANLEGG,128,,,002.AD0,11.46967,59.3802,,,
64,0135AL01,Hestevold renseanlegg,,,,RENSEANLEGG,135,,,003.120,10.79192,59.31496,,,
65,0136AL00,Fuglevik renseanlegg,,,,RENSEANLEGG,136,,,003.17Z,10.66176,59.38405,,,
66,0137AL19,Kasper,,,,RENSEANLEGG,137,,,004.A0,10.80761,59.511,,,
67,0137AL20,Svinndal,,,,RENSEANLEGG,137,,,003.B1C,11.00075,59.43003,,,
68,0138AL01,Elvestad,,,,RENSEANLEGG,138,,,003.D,10.9522,59.62403,,,
69,0138AL02,Ringvoll,,,,RENSEANLEGG,138,,,004.B,10.83943,59.56277,,,
70,0211AL47,Søndre Follo Renseanl,,,,RENSEANLEGG,211,,,004.2,10.67892,59.58862,,,
71,0213AL42,Skotbu,,,,RENSEANLEGG,213,,,003.CZ,10.94549,59.66486,,,
72,0214AL23,Nordre Follo RA,,,,RENSEANLEGG,214,,,005.4B,10.78331,59.7534,,,
73,0215AL35,Frogn,,,,RENSEANLEGG,215,,,004.3,10.64256,59.64207,,,
74,0215AL36,Blylaget,,,,RENSEANLEGG,215,,,005.22,10.70792,59.77596,,,
75,0216AL34,Buhrestua,,,,RENSEANLEGG,216,,,005.22,10.67129,59.86265,,,
76,0216AL37,Fagerstrand,,,,RENSEANLEGG,216,,,005.21,10.58838,59.73435,,,
77,0219AL00,Sollihøgda,,,,RENSEANLEGG,219,,,008.B,10.36904,59.95714,,,
78,0220AL01,Sentralrenseanlegg Ve,,,,RENSEANLEGG,220,,,009.21,10.49842,59.7911,,,
79,0221AL49,Løken Renseanlegg,,,,RENSEANLEGG,221,,,001.H1,11.4851,59.79452,,,
80,0221AL50,Setskog RA,,,,RENSEANLEGG,221,,,001.FC12,11.71239,59.8273,,,
81,0221AL51,Bjørkelangen sentralr,,,,RENSEANLEGG,221,,,001.J4,11.55247,59.86397,,,
82,0226AL67,Rånåsfoss,,,,RENSEANLEGG,226,,,002.D5,11.34228,60.03102,,,
83,0227AL53,Håpets dør,,,,RENSEANLEGG,227,,,002.D21,11.17947,59.9594,,,
84,0227AL57,Dalen,,,,RENSEANLEGG,227,,,002.C5,11.22755,59.87505,,,
85,0229AL03,Flateby,,,,RENSEANLEGG,229,,,002.C6,11.16044,59.83216,,,
86,0231AL18,RA-2 Sentralrenseanle,,,,RENSEANLEGG,231,,,002.CB0,11.03929,59.95177,,,
87,0233AL01,Åneby,,,,RENSEANLEGG,233,,,002.CD2,10.88162,60.08516,,,
88,0233AL02,Rotnes,,,,RENSEANLEGG,233,,,002.CD2,10.88521,60.05143,,,
89,0235AL43,Onsrud,,,,RENSEANLEGG,235,,,002.D2Z,11.28991,60.13179,,,
90,0235AL59,Kløfta,,,,RENSEANLEGG,235,,,002.CAB1,11.10718,60.06208,,,
91,0235AL60,Hauerseter Rep. Sente,,,,RENSEANLEGG,235,,,002.DAA2Z,11.20183,60.18808,,,
92,0235AL62,Nye Gardermoen RA,,,,RENSEANLEGG,235,,,002.CAB1,11.11227,60.16978,,,
93,0236AL07,Fjellfoten,,,,RENSEANLEGG,236,,,002.D5,11.45176,60.10463,,,
94,0237AL77,Bårli,,,,RENSEANLEGG,237,,,002.DAA211,11.26498,60.31905,,,
95,0237AL78,Minnesund,,,,RENSEANLEGG,237,,,002.DB32,11.23964,60.39853,,,
96,0237AL80,Feiring,,,,RENSEANLEGG,237,,,002.DC22,11.16066,60.49415,,,
97,0238AL00,Fagerli,,,,RENSEANLEGG,238,,,002.CAB2,11.0304,60.15759,,,
98,0238AL49,Åsgreina,,,,RENSEANLEGG,238,,,002.CAB2,10.99336,60.17073,,,
99,0239AL74,Hurdal Sentrum,,,,RENSEANLEGG,239,,,002.DAC2,11.06895,60.42645,,,
100,0301AL01,Bekkelaget,,,,RENSEANLEGG,301,,,006.21,10.76701,59.88296,,,
101,0301AL27,Grefsenkollen,,,,RENSEANLEGG,301,,,006.A3,10.80329,59.95881,,,
102,0301AL30,Kobberhaugshytta,,,,RENSEANLEGG,301,,,007.B1,10.66577,60.03786,,,
103,0402AL08,Kongsvinger RA,,,,RENSEANLEGG,402,,,002.F4,11.97045,60.20341,,,
104,0402AL09,Bæreia Krigsinvalideh,,,,RENSEANLEGG,402,,,313.3E,11.9695,60.1503,,,
105,0402AL14,Austmarka RA,,,,RENSEANLEGG,402,,,313.1C3,12.32267,60.09329,,,
106,0412AL04,Apelsvoll (Kise),,,,RENSEANLEGG,412,,,002.DC75,10.80668,60.77424,,,
107,0412AL07,Strandheim Camping,,,,RENSEANLEGG,412,,,002.DC73,10.92208,60.83056,,,
108,0412AL08,Tyrili Bjørkhaugen re,,,,RENSEANLEGG,412,,,002.DD1C,10.63753,61.09749,,,
109,0412AL20,Moelv,,,,RENSEANLEGG,412,,,002.DD1A1,10.69365,60.92194,,,
110,0605AL01,Nakkerud Renseanlegg,,,,RENSEANLEGG,605,,,012.D81,10.05882,60.04297,,,
111,0605AL02,Ringmoen RA,,,,RENSEANLEGG,605,,,012.F52,10.09461,60.35365,,,
112,0605AL32,Hallingby Renseanlegg,,,,RENSEANLEGG,605,,,012.F51,10.17492,60.26855,,,
113,0605AL34,Monserud Renseanlegg,,,,RENSEANLEGG,605,,,012.E0,10.23174,60.14501,,,
114,0605AL35,Sokna Renseanlegg,,,,RENSEANLEGG,605,,,012.DBA1,9.93178,60.23636,,,
115,0605AL98,Solborg familiehjem r,,,,RENSEANLEGG,605,,,012.EA3,10.37276,60.20567,,,
116,0612AL00,Sollihøgda,,,,RENSEANLEGG,612,,,012.D52,10.34145,59.96433,,,
117,0612AL20,Hole,,,,RENSEANLEGG,612,,,012.E0,10.21977,60.11369,,,
118,0615AL01,Flå,,,,RENSEANLEGG,615,,,012.CC10,9.47256,60.43028,,,
119,0615AL04,Brennåsen Renseanlegg,,,,RENSEANLEGG,615,,,012.CB8Z,9.51202,60.34174,,,
120,0615AL05,Fekjan Hyttegrend Ren,,,,RENSEANLEGG,615,,,012.CB82,9.5786,60.37683,,,
121,0615AL06,Høgevarde Renseanlegg,,,,RENSEANLEGG,615,,,012.CB8Z,9.5124,60.33282,,,
122,0615AL10,Reinsjøfjell Øvre,,,,RENSEANLEGG,615,,,012.CC6B,9.19179,60.38559,,,
123,0616AL29,Nesbyen,,,,RENSEANLEGG,616,,,012.CC82,9.11312,60.5727,,,
124,0616AL32,Myking,,,,RENSEANLEGG,616,,,012.CCBB,8.83418,60.53224,,,
125,0617AL01,Granheim Feriesenter,,,,RENSEANLEGG,617,,,012.CDA12,8.7609,60.77755,,,
126,0617AL79,Hallingen,,,,RENSEANLEGG,617,,,012.CD5B,9.01101,60.77117,,,
127,0617AL80,Golsfjellet Avløpsren,,,,RENSEANLEGG,617,,,012.JC2,8.99264,60.83761,,,
128,0618AL00,Tuv,,,,RENSEANLEGG,618,,,012.CDC0,8.47326,60.87608,,,
129,0618AL02,Ulsåk,,,,RENSEANLEGG,618,,,012.CDB4,8.61726,60.84694,,,
130,0618AL11,Grøndalen renseanlegg,,,,RENSEANLEGG,618,,,012.CDBAA,8.4356,60.92261,,,
131,0618AL12,Trøim,,,,RENSEANLEGG,618,,,012.CDB31,8.56924,60.86026,,,
132,0619AL01,Rødungen,,,,RENSEANLEGG,619,,,012.CED1,8.25373,60.7096,,,
133,0619AL02,Skarslia Ra,,,,RENSEANLEGG,619,,,012.CEC2,8.29419,60.67916,,,
134,0619AL50,Torpo,,,,RENSEANLEGG,619,,,012.CE30,8.73151,60.66525,,,
135,0620AL01,Sudndalen,,,,RENSEANLEGG,620,,,012.CFC6,8.02625,60.65198,,,
136,0620AL08,Hol Renseanlegg,,,,RENSEANLEGG,620,,,012.CFA3,8.29481,60.61578,,,
137,0620AL09,Geilo,,,,RENSEANLEGG,620,,,012.CG1Z,8.24538,60.54188,,,
138,0620AL44,Hovet RA,,,,RENSEANLEGG,620,,,012.CFB110,8.174,60.62496,,,
139,0620AL45,Ustaoset RA,,,,RENSEANLEGG,620,,,012.CH1,8.04254,60.49748,,,
140,0620AL46,Dagali Renseanlegg,,,,RENSEANLEGG,620,,,015.N3,8.44449,60.41087,,,
141,0621AL00,Nerstad,,,,RENSEANLEGG,621,,,012.BA3,9.73584,60.00251,,,
142,0621AL01,Eggedal,,,,RENSEANLEGG,621,,,012.BE0,9.3538,60.24141,,,
143,0621AL38,Prestfoss,,,,RENSEANLEGG,621,,,012.BA3,9.6427,60.04413,,,
144,0621AL40,Haglebu,,,,RENSEANLEGG,621,,,012.BF,9.18566,60.33738,,,
145,0621AL48,Enger renseanlegg,,,,RENSEANLEGG,621,,,012.BC22,9.44294,60.14193,,,
146,0622AL53,Noresund,,,,RENSEANLEGG,622,,,012.CB1,9.62013,60.18072,,,
147,0622AL55,Krøderen,,,,RENSEANLEGG,622,,,012.CB1,9.78281,60.12329,,,
148,0623AL20,Bårud,,,,RENSEANLEGG,623,,,012.C1,9.92043,59.89806,,,
149,0623AL53,Elvika Renseanlegg,,,,RENSEANLEGG,623,,,012.D12,9.95988,59.92975,,,
150,0623AL54,Sysle Renseanlegg,,,,RENSEANLEGG,623,,,012.CA3,9.91143,59.98673,,,
151,0624AL41,Hokksund,,,,RENSEANLEGG,624,,,012.A4,9.91887,59.77052,,,
152,0624AL75,Skotselv,,,,RENSEANLEGG,624,,,012.B4A11,9.89388,59.83882,,,
153,0625AL00,Mjøndalen,,,,RENSEANLEGG,625,,,012.A2,10.02813,59.75018,,,
154,0626AL10,Bergfløtt,,,,RENSEANLEGG,626,,,011.A0,10.20468,59.79862,,,
155,0626AL58,Sylling Renseanlegg,,,,RENSEANLEGG,626,,,012.D52,10.29396,59.89476,,,
156,0626AL61,Linnes Renseanlegg,,,,RENSEANLEGG,626,,,011.A0,10.28835,59.74977,,,
157,0626AL62,Sjåstad RA (Etter Omb,,,,RENSEANLEGG,626,,,011.AA,10.21935,59.85865,,,
158,0627AL01,Åros Renseanlegg,,,,RENSEANLEGG,627,,,009.A0,10.50708,59.70658,,,
159,0627AL62,Lahell Renseanlegg,,,,RENSEANLEGG,627,,,011.3,10.31573,59.72211,,,
160,0628AL01,Rulleto,,,,RENSEANLEGG,628,,,010.21,10.57967,59.54944,,,
161,0628AL02,Storsand ra,,,,RENSEANLEGG,628,,,010.1,10.60382,59.64291,,,
162,0412AL38,Kylstad,,,,RENSEANLEGG,412,,,002.DC5B,11.04518,60.86321,,,
163,0412AL40,Lismarka,,,,RENSEANLEGG,412,,,002.DD1C,10.62313,61.0682,,,
164,0412AL41,Brøttum,,,,RENSEANLEGG,412,,,002.DD3,10.55668,61.02416,,,
165,0412AL42,Nes,,,,RENSEANLEGG,412,,,002.DC75,10.92859,60.76023,,,
166,0412AL47,Veslelien,,,,RENSEANLEGG,412,,,002.DC72,10.8504,60.93265,,,
167,0412AL48,Brumund,,,,RENSEANLEGG,412,,,002.DC7B0,10.97774,60.94413,,,
168,0415AL01,Budor RA,,,,RENSEANLEGG,415,,,002.DC3BZ,11.29323,60.94705,,,
169,0415AL02,Rokosjøen Camping,,,,RENSEANLEGG,415,,,002.DC3CB,11.44145,60.78931,,,
170,0415AL03,Villmarksporten campi,,,,RENSEANLEGG,415,,,002.DC3C0,11.3876,60.85585,,,
171,0417AL03,Malungen gjestegård,,,,RENSEANLEGG,417,,,002.EF,11.5003,60.57758,,,
172,0417AL04,HIAS IKS,,,,RENSEANLEGG,417,,,002.DC34,11.07827,60.76653,,,
173,0417AL44,Bottenfjellet,,,,RENSEANLEGG,417,,,002.DC3C0,11.36058,60.73925,,,
174,0417AL46,Strandlykkja,,,,RENSEANLEGG,417,,,002.DC12,11.24305,60.51266,,,
175,0418AL02,Mo,,,,RENSEANLEGG,418,,,002.EB3A0,11.63383,60.4266,,,
176,0418AL03,Sand,,,,RENSEANLEGG,418,,,002.EB32,11.54748,60.38828,,,
177,0419AL46,Skarnes renseanlegg,,,,RENSEANLEGG,419,,,002.E7,11.67499,60.24756,,,
178,0420AL48,Skotterud,,,,RENSEANLEGG,420,,,313.3A0,12.12813,59.98291,,,
179,0420AL49,Magnor,,,,RENSEANLEGG,420,,,313.3A0,12.20193,59.94273,,,
180,0420AL51,BØRRUD,,,,RENSEANLEGG,420,,,313.3AA0,12.07654,59.98721,,,
181,0420AL52,Åbogen Renseanlegg,,,,RENSEANLEGG,420,,,313.3C,12.11715,60.11083,,,
182,0423AL00,FINNSKOGTOPPEN HELSET,,,,RENSEANLEGG,423,,,312.1A,12.5476,60.39117,,,
183,0423AL08,Svulrya jordrenseanle,,,,RENSEANLEGG,423,,,312.1A,12.46881,60.44676,,,
184,0423AL51,KIRKENÆR,,,,RENSEANLEGG,423,,,002.G1A,12.04723,60.45012,,,
185,0423AL52,GRINDER,,,,RENSEANLEGG,423,,,002.G10,12.03884,60.40105,,,
186,0425AL00,Søgårdshaugen,,,,RENSEANLEGG,425,,,002.H1AB,11.98824,60.69106,,,
187,0425AL02,KAFE FINNSKOG,,,,RENSEANLEGG,425,,,002.GAB0,12.38173,60.70422,,,
188,0425AL53,Berg-Kvisler,,,,RENSEANLEGG,425,,,002.G8,12.01097,60.55755,,,
189,0425AL54,Skalbukilen,,,,RENSEANLEGG,425,,,002.GA4,12.20354,60.66647,,,
190,0425AL58,HOVELSÅSEN EIENDOM (Å,,,,RENSEANLEGG,425,,,002.H21,11.92323,60.57031,,,
191,0425AL59,Flisa,,,,RENSEANLEGG,425,,,002.H11,12.01975,60.59553,,,
192,0426AL00,RANUM,,,,RENSEANLEGG,426,,,002.H1B,11.90828,60.70855,,,
193,0426AL58,VÅLER,,,,RENSEANLEGG,426,,,002.H12,11.8435,60.64975,,,
194,0427AL03,SØRSKOGBYGDA,,,,RENSEANLEGG,427,,,002.H3B,11.77165,60.93755,,,
195,0427AL58,Elverum,,,,RENSEANLEGG,427,,,002.H5,11.57058,60.85551,,,
196,0428AL00,Nybergsund,,,,RENSEANLEGG,428,,,311.B32,12.33352,61.25483,,,
197,0428AL02,Jordet,,,,RENSEANLEGG,428,,,311.D0,12.14457,61.41806,,,
198,0428AL03,Søre Osen,,,,RENSEANLEGG,428,,,002.JBB11,11.97554,61.10777,,,
199,0428AL04,Tørberget,,,,RENSEANLEGG,428,,,311.2CZ,12.11038,61.13255,,,
200,0428AL60,Innbygda,,,,RENSEANLEGG,428,,,311.B32,12.27319,61.30277,,,
201,0428AL61,Østby,,,,RENSEANLEGG,428,,,311.AC,12.52378,61.24928,,,
202,0429AL00,OSNESET,,,,RENSEANLEGG,429,,,002.JBC0,11.76783,61.30103,,,
203,0429AL01,Rena Rensepark,,,,RENSEANLEGG,429,,,002.K11,11.36703,61.17463,,,
204,0430AL00,EVENSTAD - HØGSK. HED,,,,RENSEANLEGG,430,,,002.K7,11.13909,61.4061,,,
205,0430AL01,STAI,,,,RENSEANLEGG,430,,,002.L20,11.05225,61.4959,,,
206,0430AL27,KOPPANG,,,,RENSEANLEGG,430,,,002.L32,11.00542,61.60032,,,
207,0432AL00,Hanestad,,,,RENSEANLEGG,432,,,002.M3,10.87076,61.8366,,,
208,0432AL01,Renåvangen,,,,RENSEANLEGG,432,,,002.JDAZ,11.38366,61.7258,,,
209,0432AL09,Lia Gård,,,,RENSEANLEGG,432,,,002.JD4,11.18018,61.5653,,,
210,0432AL15,Bergset,,,,RENSEANLEGG,432,,,002.JE8,11.07919,61.88478,,,
211,0432AL16,Åkrestrømmen,,,,RENSEANLEGG,432,,,002.JD32,11.19861,61.69253,,,
212,0432AL98,Kærnesmoa Rensepark,,,,RENSEANLEGG,432,,,002.JE1,11.21793,61.72455,,,
213,0434AL00,Drevsjø,,,,RENSEANLEGG,434,,,310.C,12.0345,61.87925,,,
214,0434AL62,ENGERDAL,,,,RENSEANLEGG,434,,,311.DC4,11.96493,61.75529,,,
215,0434AL63,ELGÅ RENSEPARK,,,,RENSEANLEGG,434,,,002.H5,11.55929,60.88134,,,
216,0436AL00,Vingelen renseanlegg9,,,,RENSEANLEGG,436,,,002.P40,10.90076,62.38123,,,
217,0436AL01,TOLGA,,,,RENSEANLEGG,436,,,002.P3,10.99483,62.40707,,,
218,0437AL00,Savalen,,,,RENSEANLEGG,437,,,002.N2B,10.52284,62.31007,,,
219,0437AL63,YSET,,,,RENSEANLEGG,437,,,121.E82,10.30935,62.56706,,,
220,0437AL64,Fåset,,,,RENSEANLEGG,437,,,002.N4,10.66486,62.25814,,,
221,0438AL01,Alvdal,,,,RENSEANLEGG,438,,,002.N11,10.63011,62.10683,,,
222,0439AL00,Brattbakken Rensepark,,,,RENSEANLEGG,439,,,002.ME0,10.01961,62.1158,,,
223,0439AL08,Dalholen Rensepark,,,,RENSEANLEGG,439,,,002.ME0,9.79134,62.18193,,,
224,0441AL00,Os Renseanlegg,,,,RENSEANLEGG,441,,,002.Q111,11.21189,62.4956,,,
225,0441AL01,Dalsbygda Renseanlegg,,,,RENSEANLEGG,441,,,002.PA1,11.11926,62.51724,,,
226,0501AL51,Lillehammer Renseanle,,,,RENSEANLEGG,501,,,002.DD51,10.46516,61.09629,,,
227,0502AL00,Furuodden Camping,,,,RENSEANLEGG,502,,,002.DD42,10.45622,61.02276,,,
228,0502AL01,Stranda Camping,,,,RENSEANLEGG,502,,,002.DD42,10.45079,61.02551,,,
229,0502AL05,Rambekk,,,,RENSEANLEGG,502,,,002.DC63,10.70401,60.77738,,,
230,0511AL00,Dovreskogen Camping,,,,RENSEANLEGG,511,,,002.DJ6A,9.25736,61.95416,,,
231,0511AL01,Furuhaugli Turisthytt,,,,RENSEANLEGG,511,,,002.MG,9.36655,62.15678,,,
232,0511AL06,Hjelleseter,,,,RENSEANLEGG,511,,,002.DJ7A,9.20392,62.08845,,,
233,0511AL07,Faksfall Camping,,,,RENSEANLEGG,511,,,002.DK0,9.01797,62.04371,,,
234,0511AL08,Dovregubbens Hall,,,,RENSEANLEGG,511,,,002.MF5,9.42443,62.17906,,,
235,0511AL09,Toftemo Turiststasjon,,,,RENSEANLEGG,511,,,002.DJ71,9.2234,62.00269,,,
236,0511AL12,Dovreskogen Gjestegår,,,,RENSEANLEGG,511,,,002.DJ61,9.36173,61.91353,,,
237,0511AL13,Dovre Motell og Dovre,,,,RENSEANLEGG,511,,,002.DJ62,9.24635,61.98324,,,
238,0511AL59,Dombås,,,,RENSEANLEGG,511,,,002.DJ7A,9.10173,62.08245,,,
239,0511AL60,Dovreskogen,,,,RENSEANLEGG,511,,,002.DJ61,9.33849,61.92083,,,
240,0511AL61,Dovre,,,,RENSEANLEGG,511,,,002.DJ530,9.24567,61.98479,,,
241,0511AL62,Hjerkinn,,,,RENSEANLEGG,511,,,002.MF1,9.56538,62.21895,,,
242,0512AL04,Lesjaverk,,,,RENSEANLEGG,512,,,002.DL,8.54027,62.18882,,,
243,0512AL05,Holsethmoen,,,,RENSEANLEGG,512,,,002.DKA,8.66063,62.12938,,,
244,0512AL59,Bjorli,,,,RENSEANLEGG,512,,,103.C1,8.24623,62.23133,,,
245,0513AL00,Dønfoss,,,,RENSEANLEGG,513,,,002.DHE0,8.10136,61.91375,,,
246,0513AL02,Pollfoss Turistheim,,,,RENSEANLEGG,513,,,002.DHF32,7.90171,61.95943,,,
247,0513AL06,Øyberg Sæter,,,,RENSEANLEGG,513,,,002.DHH0,7.76597,62.01529,,,
248,0513AL61,Bismo,,,,RENSEANLEGG,513,,,002.DHE0,8.27159,61.87903,,,
249,0513AL62,Aurmo,,,,RENSEANLEGG,513,,,002.DHD0,8.34957,61.88104,,,
250,0514AL05,Glitterheim Turiststa,,,,RENSEANLEGG,514,,,002.DGDC3,8.63412,61.62356,,,
251,0514AL08,Sognefjell Turisthytt,,,,RENSEANLEGG,514,,,075.CC1D,7.99655,61.56739,,,
252,0514AL09,Juvasshytta,,,,RENSEANLEGG,514,,,002.DHBAZ,8.37661,61.67335,,,
253,0514AL10,Jotunheimen Fjellstue,,,,RENSEANLEGG,514,,,002.DHBD,8.14646,61.66178,,,
254,0514AL12,Spiterstulen Turistho,,,,RENSEANLEGG,514,,,002.DHBAZ,8.404,61.62454,,,
255,0514AL13,Leirvassbu Fjellstue,,,,RENSEANLEGG,514,,,002.DHBBZ,8.24552,61.54879,,,
256,0514AL16,Brimi Fjellstugu,,,,RENSEANLEGG,514,,,002.DHB2C,8.91082,61.80895,,,
257,0514AL17,Galdesand,,,,RENSEANLEGG,514,,,002.DHBB0,8.35288,61.72396,,,
258,0514AL18,Røisheim,,,,RENSEANLEGG,514,,,002.DHBB0,8.38173,61.74788,,,
259,0514AL54,Garmo,,,,RENSEANLEGG,514,,,002.DHB40,8.81,61.85193,,,
260,0515AL07,Skogbygda,,,,RENSEANLEGG,515,,,002.DHAA0,8.98793,61.91382,,,
261,0515AL10,Bessheim Fjellstue,,,,RENSEANLEGG,515,,,002.DGF51,8.85716,61.51535,,,
262,0515AL60,Lalm,,,,RENSEANLEGG,515,,,002.DHA5,9.2752,61.81767,,,
263,0516AL00,"Slangen Seter, Skåbu",,,,RENSEANLEGG,516,,,002.DFBA3,9.34916,61.47817,,,
264,0516AL03,"Bøygen Camping, Vinst",,,,RENSEANLEGG,516,,,002.DG10,9.74064,61.59959,,,
265,0516AL63,Vinstra,,,,RENSEANLEGG,516,,,002.DF73,9.76469,61.58674,,,
266,0516AL64,Kvam,,,,RENSEANLEGG,516,,,002.DG10,9.70491,61.66367,,,
267,0516AL66,Skåbu RA,,,,RENSEANLEGG,516,,,002.DFB32,9.40097,61.52076,,,
268,0517AL01,Faukstad,,,,RENSEANLEGG,517,,,002.DGA1,9.44504,61.70341,,,
269,0517AL65,Otta,,,,RENSEANLEGG,517,,,002.DH0,9.55437,61.74771,,,
270,0517AL66,Bjølstadmo,,,,RENSEANLEGG,517,,,002.DGAA,9.31876,61.75073,,,
271,0517AL67,Høvringen,,,,RENSEANLEGG,517,,,002.DJ3B,9.45673,61.89046,,,
272,0519AL00,Gudbrandsdal Leirskol,,,,RENSEANLEGG,519,,,002.DDEB,9.9284,61.41844,,,
273,0519AL01,Dalseter Høyfjellshot,,,,RENSEANLEGG,519,,,002.DFB6B,9.46074,61.47021,,,
274,0519AL03,Ruten Fjellstue,,,,RENSEANLEGG,519,,,002.DFB6B,9.4514,61.47338,,,
275,0520AL66,Ringebu,,,,RENSEANLEGG,520,,,002.DF1A2,10.13701,61.52577,,,
276,0520AL67,Fåvang,,,,RENSEANLEGG,520,,,002.DEA0,10.19357,61.45416,,,
277,0520AL69,Frya renseanlegg,,,,RENSEANLEGG,520,,,002.DF30,10.05718,61.54184,,,
278,0520AL71,Måsåplassen,,,,RENSEANLEGG,520,,,002.DF1AA0,10.26853,61.56095,,,
279,0521AL35,Hornsjø Høyfjellshote,,,,RENSEANLEGG,521,,,002.HCZ,10.71964,61.25442,,,
280,0521AL70,Tretten,,,,RENSEANLEGG,521,,,002.DE33,10.29978,61.30823,,,
281,0522AL04,Strand Fjellstue,,,,RENSEANLEGG,522,,,002.DFB6C,9.63259,61.38378,,,
282,0528AL31,Lena,,,,RENSEANLEGG,528,,,002.DC4B0,10.81771,60.67027,,,
283,0528AL48,Kapp,,,,RENSEANLEGG,528,,,002.DC62,10.85979,60.7168,,,
284,0528AL49,Nordlia,,,,RENSEANLEGG,528,,,002.DC63,10.76257,60.74873,,,
285,0528AL71,Skreia,,,,RENSEANLEGG,528,,,002.DC4A0,10.96861,60.65969,,,
286,0528AL72,Kolbu,,,,RENSEANLEGG,528,,,002.DC4B0,10.75388,60.64811,,,
287,0529AL26,Blåkorshjemmet Eina,,,,RENSEANLEGG,529,,,002.DCD2,10.65573,60.54064,,,
288,0529AL50,Breiskallen,,,,RENSEANLEGG,529,,,002.DCC2,10.61996,60.7497,,,
289,0529AL51,Eina,,,,RENSEANLEGG,529,,,002.DCC5,10.59478,60.63173,,,
290,0532AL73,Jevnaker,,,,RENSEANLEGG,532,,,012.EA82,10.36965,60.23262,,,
291,0533AL15,Harestua,,,,RENSEANLEGG,533,,,002.CFZ,10.71122,60.20418,,,
292,0533AL37,Volla,,,,RENSEANLEGG,533,,,012.EBC,10.59398,60.3068,,,
293,0533AL39,Grindvoll,,,,RENSEANLEGG,533,,,012.EB3Z,10.4889,60.29592,,,
294,0534AL00,Bjoneroa,,,,RENSEANLEGG,534,,,012.EC2A0,10.28606,60.52075,,,
295,0534AL07,Brandbu,,,,RENSEANLEGG,534,,,012.EBA21,10.50207,60.42509,,,
296,0534AL38,Grymyr,,,,RENSEANLEGG,534,,,012.EB5,10.40055,60.34538,,,
297,0536AL00,Lyngstrand Camping,,,,RENSEANLEGG,536,,,012.EC71,10.29756,60.71684,,,
298,0536AL02,Landåsbygda,,,,RENSEANLEGG,536,,,012.EC7C,10.29726,60.83214,,,
299,0536AL03,Sollia,,,,RENSEANLEGG,536,,,012.EC5C,10.46904,60.65894,,,
300,0536AL23,Grimebakken RA,,,,RENSEANLEGG,536,,,012.EC32,10.33032,60.57038,,,
301,0536AL41,Hov RA,,,,RENSEANLEGG,536,,,012.EC520,10.33677,60.70378,,,
302,0536AL42,Odnes RA,,,,RENSEANLEGG,536,,,012.EC72,10.1826,60.80018,,,
303,0536AL43,Fluberg RA,,,,RENSEANLEGG,536,,,012.EC71,10.24474,60.77187,,,
304,0536AL44,Trevatn RA,,,,RENSEANLEGG,536,,,012.EC5B,10.49314,60.62635,,,
305,0538AL39,Dokka,,,,RENSEANLEGG,538,,,012.ED0,10.08629,60.82658,,,
306,0538AL40,Spåtind,,,,RENSEANLEGG,538,,,012.EDAC,9.87138,61.12822,,,
307,0538AL41,Riisby,,,,RENSEANLEGG,538,,,012.EE0,9.99932,60.8397,,,
308,0538AL42,Elverom,,,,RENSEANLEGG,538,,,012.EDA3,10.10374,60.96524,,,
309,0540AL01,Begna jordrenseanlegg,,,,RENSEANLEGG,540,,,012.H3Z,9.8921,60.64463,,,
310,0540AL02,Bagn,,,,RENSEANLEGG,540,,,012.J20,9.55911,60.82259,,,
311,0540AL03,Hedalen infiltrasjons,,,,RENSEANLEGG,540,,,012.GBA0,9.73677,60.60817,,,
312,0541AL00,Gamlestølen turistsen,,,,RENSEANLEGG,541,,,012.EDAAB,9.70328,61.03105,,,
313,0541AL42,Sør Etnedal,,,,RENSEANLEGG,541,,,012.EF1,9.75281,60.83622,,,
314,0541AL44,Bruflat,,,,RENSEANLEGG,541,,,012.EF3,9.64625,60.89127,,,
315,0541AL45,Glenna,,,,RENSEANLEGG,541,,,012.EDAAB,9.66968,61.02438,,,
316,0542AL00,Aurdal,,,,RENSEANLEGG,542,,,012.J71,9.39277,60.91515,,,
317,0542AL18,Sanderstølen,,,,RENSEANLEGG,542,,,012.JB6,9.14057,60.82862,,,
318,0542AL19,Fagernes/Leira,,,,RENSEANLEGG,542,,,012.K,9.30826,60.95736,,,
319,0542AL20,Nythun,,,,RENSEANLEGG,542,,,012.L1B,9.35659,61.0351,,,
320,0542AL28,Ulnes,,,,RENSEANLEGG,542,,,012.L9,9.10723,60.99863,,,
321,0543AL45,Røn RA,,,,RENSEANLEGG,543,,,012.L9,9.05738,61.03556,,,
322,0543AL46,Vaset,,,,RENSEANLEGG,543,,,012.L2A,9.01516,61.00119,,,
323,0544AL00,Haugseter Fjellstue,,,,RENSEANLEGG,544,,,002.DFG,8.98318,61.34261,,,
324,0544AL37,Nedrefoss RA,,,,RENSEANLEGG,544,,,012.LB4,9.07921,61.11937,,,
325,0544AL38,Ygna RA,,,,RENSEANLEGG,544,,,012.LA5A,9.16104,61.05916,,,
326,0544AL39,Yddin Feriehytter,,,,RENSEANLEGG,544,,,012.LBBA,9.14136,61.19802,,,
327,0545AL02,Grindaheim,,,,RENSEANLEGG,545,,,012.P20,8.58709,61.12862,,,
328,0545AL04,Tyinkrysset,,,,RENSEANLEGG,545,,,012.R1A,8.23886,61.20536,,,
329,0545AL14,Ryfoss,,,,RENSEANLEGG,545,,,012.N20,8.83233,61.13504,,,
330,0545AL15,Bygdin Høyfjellshotel,,,,RENSEANLEGG,545,,,002.DFH,8.79954,61.32813,,,
331,0545AL17,Åsvang,,,,RENSEANLEGG,545,,,012.NA,8.70156,61.17407,,,
332,0602AL06,Solumstrand Renseanle,,,,RENSEANLEGG,602,,,012.1,10.2673,59.71091,,,
333,0602AL45,Muusøya Renseanlegg,,,,RENSEANLEGG,602,,,012.A10,10.15668,59.75055,,,
334,0604AL47,Sellikdalen,,,,RENSEANLEGG,604,,,015.D22,9.64753,59.6481,,,
335,0604AL75,Myhra Camping RA,,,,RENSEANLEGG,604,,,015.DZ,9.45491,59.70368,,,
336,0604AL83,Storaas Gjestegård,,,,RENSEANLEGG,604,,,015.DZ,9.3503,59.72646,,,
337,0604AL85,Hamremoen Kro RA,,,,RENSEANLEGG,604,,,015.C810,9.78061,59.57283,,,
338,0604AL88,Hvittingfoss Avløpsre,,,,RENSEANLEGG,604,,,015.C43,10.00805,59.48327,,,
339,0604AL89,Lia-Blefjell-reg.plan,,,,RENSEANLEGG,604,,,015.DZ,9.39448,59.73351,,,
340,0604AL90,"Efteløt RA, Efteløtve",,,,RENSEANLEGG,604,,,015.C810,9.81395,59.54881,,,
341,0605AL00,Tyristrand RA,,,,RENSEANLEGG,605,,,012.D81,10.10845,60.08288,,,
342,1106AL07,Statens Havarivernsko,,,,RENSEANLEGG,1106,,,039.80,5.25606,59.41984,,,
343,1106AL09,Suggevågen,,,,RENSEANLEGG,1106,,,039.80,5.09163,59.43838,,,
344,1106AL11,Røvær Forøvrig-Separa,,,,RENSEANLEGG,1106,,,039.80,5.08242,59.4417,,,
345,1106AL12,Hagland Hytteområde,,,,RENSEANLEGG,1106,,,039.80,5.24732,59.4987,,,
346,1106AL13,Årabrot,,,,RENSEANLEGG,1106,,,039.80,5.24218,59.44779,,,
347,1111AL04,Åna Sira,,,,RENSEANLEGG,1111,,,026.31,6.43923,58.29394,,,
348,1111AL10,Nesvåg,,,,RENSEANLEGG,1111,,,027.11,6.20231,58.33767,,,
349,1111AL15,Åros - Hauge,,,,RENSEANLEGG,1111,,,026.41,6.29012,58.32273,,,
350,1112AL00,Moi,,,,RENSEANLEGG,1112,,,026.B22,6.55689,58.44779,,,
351,1112AL01,Eik,,,,RENSEANLEGG,1112,,,026.BC0,6.49632,58.5242,,,
352,1112AL04,Ualand,,,,RENSEANLEGG,1112,,,027.3CC0,6.34245,58.53728,,,
353,1114AL04,Vikeså,,,,RENSEANLEGG,1114,,,027.B4,6.08029,58.63131,,,
354,1114AL06,Gjedrem Camping,,,,RENSEANLEGG,1114,,,027.B1,6.09643,58.60292,,,
355,1114AL11,Kodlhomstjørn Avløpsa,,,,RENSEANLEGG,1114,,,027.CC,6.358,58.71687,,,
356,1119AL02,Nærbø,,,,RENSEANLEGG,1119,,,028.3A0,5.56311,58.66343,,,
357,1119AL03,Vigrestad og Brusand,,,,RENSEANLEGG,1119,,,028.12,5.65846,58.56393,,,
358,1119AL09,Sirevåg,,,,RENSEANLEGG,1119,,,027.61,5.78951,58.50304,,,
359,1120AL00,Vik,,,,RENSEANLEGG,1120,,,028.41,5.54142,58.71239,,,
360,1120AL03,Bore,,,,RENSEANLEGG,1120,,,028.A3,5.59798,58.79154,,,
361,1122AL00,Oltedal,,,,RENSEANLEGG,1122,,,030.1C,6.06105,58.83329,,,
362,1122AL12,Dirdal,,,,RENSEANLEGG,1122,,,030.212,6.17841,58.83516,,,
363,1127AL00,Sentralrenseanlegg No,,,,RENSEANLEGG,1127,,,029.11,5.61851,59.01968,,,
364,1129AL00,Øyren,,,,RENSEANLEGG,1129,,,030.422,6.09408,58.90032,,,
365,1129AL01,Myra,,,,RENSEANLEGG,1129,,,030.422,6.10047,58.89462,,,
366,1129AL02,Meling,,,,RENSEANLEGG,1129,,,032.1,6.02178,58.93937,,,
367,1129AL03,Mælshamaren,,,,RENSEANLEGG,1129,,,030.421,6.14031,58.86631,,,
368,1129AL09,Bergekleiva  (kjellbe,,,,RENSEANLEGG,1129,,,031.11,6.10222,58.90679,,,
369,1130AL00,"Tau, Saholmen",,,,RENSEANLEGG,1130,,,032.4A22,5.92176,59.06077,,,
370,1130AL01,Jørpeland,,,,RENSEANLEGG,1130,,,032.3,6.02261,59.02449,,,
371,1130AL03,"Jøssang, Botnefjorden",,,,RENSEANLEGG,1130,,,032.2,6.0792,58.99433,,,
372,1130AL06,Lynghaug,,,,RENSEANLEGG,1130,,,032.4A4,6.02499,59.07757,,,
373,1130AL10,Solbakk,,,,RENSEANLEGG,1130,,,032.41,5.93246,59.03856,,,
374,1130AL11,Fiskå,,,,RENSEANLEGG,1130,,,032.5,5.97765,59.1196,,,
375,1130AL19,Preikestolhytta,,,,RENSEANLEGG,1130,,,031.62Z,6.13889,58.98848,,,
376,1130AL21,Alsvik/Amdal,,,,RENSEANLEGG,1130,,,032.5,5.93118,59.09982,,,
377,1130AL22,Vervik,,,,RENSEANLEGG,1130,,,032.5,5.95862,59.11736,,,
378,1130AL23,Døvika,,,,RENSEANLEGG,1130,,,033.13,6.0883,59.13382,,,
379,1130AL30,Grønevoll,,,,RENSEANLEGG,1130,,,032.41,5.97754,59.02165,,,
380,1130AL40,Idsal,,,,RENSEANLEGG,1130,,,032.2,5.96985,58.97806,,,
381,1133AL00,Fister,,,,RENSEANLEGG,1133,,,035.1A,6.06883,59.17742,,,
382,1133AL02,Askvik,,,,RENSEANLEGG,1133,,,035.21,6.1215,59.21724,,,
383,1133AL04,Sande-Hundsnes,,,,RENSEANLEGG,1133,,,035.21,6.15902,59.22975,,,
384,1133AL06,Klokkarjordet/Øvrehus,,,,RENSEANLEGG,1133,,,035.11,6.04794,59.17604,,,
385,1133AL08,Randøy Misjonssenter,,,,RENSEANLEGG,1133,,,034.2,6.00326,59.20054,,,
386,1133AL12,Øye på Randøy,,,,RENSEANLEGG,1133,,,034.2,6.09929,59.23112,,,
387,1133AL13,Mælandsmoen,,,,RENSEANLEGG,1133,,,035.A21,6.44599,59.33095,,,
388,1133AL17,Nessa,,,,RENSEANLEGG,1133,,,033.22,6.10177,59.1503,,,
389,1133AL19,Nesvik,,,,RENSEANLEGG,1133,,,035.5,6.15976,59.26301,,,
390,1133AL23,Solvåg Fjordhytter,,,,RENSEANLEGG,1133,,,035.11,6.02733,59.15131,,,
391,1133AL24,Tønnevik på Fister,,,,RENSEANLEGG,1133,,,035.11,6.04348,59.16695,,,
392,1133AL26,Grønvik Ved Fister,,,,RENSEANLEGG,1133,,,033.22,6.04072,59.13814,,,
393,1134AL01,Suldalsosen,,,,RENSEANLEGG,1134,,,036.A4,6.49012,59.48793,,,
394,1134AL05,"Foreneset, Suldal",,,,RENSEANLEGG,1134,,,035.8,6.0988,59.33184,,,
395,1134AL06,"Vik, Erfjord",,,,RENSEANLEGG,1134,,,035.722,6.21864,59.35396,,,
396,1134AL09,Mosvatn,,,,RENSEANLEGG,1134,,,036.A1B4,6.4499,59.42126,,,
397,1134AL10,Jelsa,,,,RENSEANLEGG,1134,,,036.11,6.0221,59.33892,,,
398,1134AL12,Vatlandsvågen/Kjølvik,,,,RENSEANLEGG,1134,,,037.62,6.01015,59.40792,,,
399,1134AL21,"Hauaneset, Erøy",,,,RENSEANLEGG,1134,,,035.722,6.22869,59.33908,,,
400,1134AL22,Marvik,,,,RENSEANLEGG,1134,,,037.61,6.08011,59.41013,,,
401,1135AL00,Ikke oppgitt. KEE fan,,,,RENSEANLEGG,1135,,,037.32,6.30522,59.63779,,,
402,1135AL02,Svandal hyttefelt tri,,,,RENSEANLEGG,1135,,,037.32,6.24424,59.61556,,,
403,1154AL16,Imsland,,,,RENSEANLEGG,1160,,,038.212,5.99339,59.47762,,,
404,1154AL17,Raunes,,,,RENSEANLEGG,1160,,,038.52,5.74799,59.44143,,,
405,1159AL00,Bergsneset,,,,RENSEANLEGG,1160,,,041.310,5.75861,59.60499,,,
406,1159AL11,Hjartåker,,,,RENSEANLEGG,1160,,,041.310,5.62202,59.67612,,,
407,1159AL12,Naustvika,,,,RENSEANLEGG,1160,,,041.222,5.57699,59.59496,,,
408,1159AL13,Osen,,,,RENSEANLEGG,1160,,,041.310,5.80646,59.60527,,,
409,1159AL14,Apalvika,,,,RENSEANLEGG,1160,,,041.310,5.66855,59.66384,,,
410,1159AL15,Sveinavika,,,,RENSEANLEGG,1160,,,041.310,5.66758,59.66471,,,
411,1201AL01,Ytre Sandviken Avløps,,,,RENSEANLEGG,1201,,,056.5,5.29945,60.42198,,,
412,1201AL02,Alvøen,,,,RENSEANLEGG,1201,,,056.4,5.18742,60.35409,,,
413,1201AL03,Tellevik,,,,RENSEANLEGG,1201,,,061.11,5.31701,60.52285,,,
414,1201AL04,Kjøkkelvik,,,,RENSEANLEGG,1201,,,056.5,5.22683,60.38982,,,
415,1201AL05,Kaland Skole,,,,RENSEANLEGG,1201,,,056.2B,5.40445,60.27792,,,
416,1201AL07,Austteigane,,,,RENSEANLEGG,1201,,,056.2A,5.35208,60.26875,,,
417,1201AL08,Steinestø,,,,RENSEANLEGG,1201,,,056.6,5.2897,60.52022,,,
418,1201AL09,Fagerdalen,,,,RENSEANLEGG,1201,,,056.5,5.19209,60.37624,,,
419,1201AL10,Godvik,,,,RENSEANLEGG,1201,,,056.5,5.19715,60.37953,,,
420,1201AL12,Fanaveien,,,,RENSEANLEGG,1201,,,056.2A,5.3471,60.26466,,,
421,1201AL13,Hagevegen,,,,RENSEANLEGG,1201,,,061.2C,5.46008,60.35804,,,
422,1201AL14,Halvorshagen,,,,RENSEANLEGG,1201,,,056.2A,5.34119,60.2609,,,
423,1201AL16,Lokketona,,,,RENSEANLEGG,1201,,,056.6,5.25579,60.48224,,,
424,1201AL17,Totland,,,,RENSEANLEGG,1201,,,056.3A,5.43351,60.31016,,,
425,1201AL18,Naustvegen,,,,RENSEANLEGG,1201,,,056.6,5.26093,60.48903,,,
426,1201AL20,Hordvikneset,,,,RENSEANLEGG,1201,,,061.11,5.29873,60.52416,,,
427,1201AL21,Skarehaugene,,,,RENSEANLEGG,1201,,,056.4,5.20104,60.33138,,,
428,1201AL22,Skareveien,,,,RENSEANLEGG,1201,,,056.4,5.21017,60.33002,,,
429,1201AL23,Håkonshella,,,,RENSEANLEGG,1201,,,056.4,5.1815,60.34268,,,
430,1201AL24,Slembevegen,,,,RENSEANLEGG,1201,,,056.6,5.2608,60.49253,,,
431,1201AL25,Saudalskleivane,,,,RENSEANLEGG,1201,,,056.6,5.25433,60.48228,,,
432,1201AL27,Flesland Renseanlegg,,,,RENSEANLEGG,1201,,,056.31,5.20836,60.28323,,,
433,1201AL28,Søre Titlestad,,,,RENSEANLEGG,1201,,,056.2A,5.3536,60.26646,,,
434,1201AL30,Ytre Morvik,,,,RENSEANLEGG,1201,,,056.6,5.25607,60.47982,,,
435,1201AL32,Sagstad,,,,RENSEANLEGG,1201,,,056.1,5.36641,60.22924,,,
436,1201AL33,Skredsmoneset,,,,RENSEANLEGG,1201,,,056.21,5.29699,60.22992,,,
437,1201AL34,Bratland Camping,,,,RENSEANLEGG,1201,,,056.3B,5.43695,60.35339,,,
438,1201AL35,Hagardsviken-Garnes,,,,RENSEANLEGG,1201,,,061.22,5.48303,60.43911,,,
439,1201AL37,Garnes,,,,RENSEANLEGG,1201,,,061.22,5.46323,60.45386,,,
440,1201AL40,Helleneset,,,,RENSEANLEGG,1201,,,056.5,5.27974,60.43536,,,
441,1201AL41,Eikeviken,,,,RENSEANLEGG,1201,,,056.5,5.28963,60.42845,,,
442,1201AL42,Knappen,,,,RENSEANLEGG,1201,,,056.4,5.25034,60.32757,,,
443,1201AL43,Kvernevik,,,,RENSEANLEGG,1201,,,056.6,5.27827,60.46408,,,
444,1201AL44,Nordheim,,,,RENSEANLEGG,1201,,,056.2A,5.35883,60.26498,,,
445,1201AL48,Lokketodalen,,,,RENSEANLEGG,1201,,,056.6,5.25604,60.48323,,,
446,1201AL49,Drotningsvik,,,,RENSEANLEGG,1201,,,056.4,5.17473,60.36945,,,
447,1201AL50,Mjølkeråen,,,,RENSEANLEGG,1201,,,056.6,5.25744,60.48687,,,
448,1201AL52,Holen Renseanlegg,,,,RENSEANLEGG,1201,,,056.5,5.27359,60.39384,,,
449,1201AL53,Hylkje,,,,RENSEANLEGG,1201,,,061.11,5.3357,60.51655,,,
450,1201AL54,Ytre Arna,,,,RENSEANLEGG,1201,,,061.12,5.44073,60.45829,,,
451,1201AL57,Kistebakkane,,,,RENSEANLEGG,1201,,,056.6,5.26793,60.49076,,,
452,1211AL00,Kyrping,,,,RENSEANLEGG,1211,,,042.21,6.10572,59.74344,,,
453,1211AL01,Mæland,,,,RENSEANLEGG,1211,,,041.4,5.90947,59.6419,,,
454,1211AL10,Skånevik,,,,RENSEANLEGG,1211,,,042.121,5.93139,59.73228,,,
455,1211AL14,Etne Sentrum,,,,RENSEANLEGG,1211,,,041.4,5.93214,59.6658,,,
456,1211AL15,Leiknes,,,,RENSEANLEGG,1211,,,042.121,5.90844,59.73982,,,
457,1216AL01,Valevåg,,,,RENSEANLEGG,1216,,,039.9,5.47181,59.70181,,,
458,1216AL02,Førde Sør,,,,RENSEANLEGG,1216,,,039.9,5.46628,59.61088,,,
459,1216AL03,Tørresplasset,,,,RENSEANLEGG,1216,,,039.9,5.31896,59.59558,,,
460,1216AL10,Auklandshamn,,,,RENSEANLEGG,1216,,,039.9,5.3854,59.64552,,,
461,1216AL11,Tittelsnes-Gramshaug,,,,RENSEANLEGG,1216,,,039.9,5.50392,59.71796,,,
462,1216AL12,Førde Sentrum,,,,RENSEANLEGG,1216,,,039.9,5.46865,59.61365,,,
463,1216AL13,Sveio Sentrum/Eltravå,,,,RENSEANLEGG,1216,,,039.9,5.28173,59.55542,,,
464,1216AL14,Solgry,,,,RENSEANLEGG,1216,,,039.9,5.44021,59.57548,,,
465,1219AL00,Alvsvåg,,,,RENSEANLEGG,1219,,,043.3,5.16935,59.76477,,,
466,1219AL01,Ramsosen,,,,RENSEANLEGG,1219,,,043.1,5.25574,59.82075,,,
467,1219AL03,Eidesvik,,,,RENSEANLEGG,1219,,,043.3,5.19537,59.59877,,,
468,1219AL04,Notlandsvåg,,,,RENSEANLEGG,1219,,,043.20,5.3657,59.69621,,,
469,1219AL05,Arhaugvika,,,,RENSEANLEGG,1219,,,043.1,5.27591,59.81593,,,
470,1219AL06,Trøytarosen,,,,RENSEANLEGG,1219,,,043.3,5.23059,59.72744,,,
471,1219AL07,Nesse,,,,RENSEANLEGG,1219,,,043.4,5.12648,59.79632,,,
472,1219AL10,Rolvnesvika,,,,RENSEANLEGG,1219,,,043.4,5.16257,59.87019,,,
473,1219AL11,Foldrøy-Bustadfelt,,,,RENSEANLEGG,1219,,,043.1,5.30489,59.79608,,,
474,1221AL00,"Aker Stord I, Eldøyan",,,,RENSEANLEGG,1221,,,044.32,5.5082,59.76563,,,
475,1221AL01,"Aker Stord II, Kjøtte",,,,RENSEANLEGG,1221,,,044.32,5.49769,59.75515,,,
476,1221AL02,Stokksundet,,,,RENSEANLEGG,1221,,,044.4,5.3361,59.79606,,,
477,1221AL03,Sagvåg Utslepp 4.-02-,,,,RENSEANLEGG,1221,,,044.4,5.38669,59.77364,,,
478,1221AL04,Sagvåg Grunnevågen,,,,RENSEANLEGG,1221,,,044.4,5.38297,59.77033,,,
479,1221AL05,"Sætravik, Utslepp 5.0",,,,RENSEANLEGG,1221,,,044.4,5.39631,59.76624,,,
480,1221AL06,Horneland,,,,RENSEANLEGG,1221,,,044.32,5.46474,59.75196,,,
481,1221AL07,Bjelland Utslepp 5.01,,,,RENSEANLEGG,1221,,,044.32,5.50545,59.77147,,,
482,1221AL08,Leirvik Sør 09.01-9.0,,,,RENSEANLEGG,1221,,,044.32,5.50046,59.77997,,,
483,1221AL09,Leirvik Nord 10.02-10,,,,RENSEANLEGG,1221,,,044.31,5.52683,59.78867,,,
484,1221AL12,Leirvik Nord,,,,RENSEANLEGG,1221,,,044.31,5.52683,59.78867,,,
485,1221AL13,Sæverhagen,,,,RENSEANLEGG,1221,,,044.31,5.53206,59.80082,,,
486,1221AL14,"Økland, Knosterneset",,,,RENSEANLEGG,1221,,,044.31,5.53333,59.81173,,,
487,1221AL15,Skarvane,,,,RENSEANLEGG,1221,,,044.23,5.55637,59.85919,,,
488,1221AL16,Djupavik,,,,RENSEANLEGG,1221,,,044.32,5.51173,59.77801,,,
489,1222AL00,Koløyholmen,,,,RENSEANLEGG,1222,,,044.4,5.30753,59.85278,,,
490,1222AL01,Havn,,,,RENSEANLEGG,1222,,,044.6,5.31691,59.92541,,,
491,1222AL10,Årskog,,,,RENSEANLEGG,1222,,,044.6,5.32851,59.93786,,,
492,1222AL11,Vestbøstad,,,,RENSEANLEGG,1222,,,044.52,5.29183,59.91346,,,
493,1223AL02,Våge,,,,RENSEANLEGG,1223,,,054.62,5.52311,60.04652,,,
494,1223AL03,Onarheim,,,,RENSEANLEGG,1223,,,054.5,5.62674,59.94676,,,
495,1223AL04,Lundehagen I,,,,RENSEANLEGG,1223,,,054.62,5.63171,60.05653,,,
496,1223AL05,Lundehagen II,,,,RENSEANLEGG,1223,,,054.62,5.62277,60.06484,,,
497,1223AL06,Lunde Sentrum,,,,RENSEANLEGG,1223,,,054.62,5.63408,60.05974,,,
498,1223AL07,Uggdal Sentrum,,,,RENSEANLEGG,1223,,,054.62,5.49519,59.99634,,,
499,1223AL08,Uggdalseidet,,,,RENSEANLEGG,1223,,,054.62,5.48968,59.99755,,,
500,1224AL00,Nedre Boland (2.1),,,,RENSEANLEGG,1224,,,053.43,5.91709,60.06082,,,
501,1224AL01,Kirkhusneset (2.2),,,,RENSEANLEGG,1224,,,053.43,5.91675,60.06441,,,
502,1224AL04,Hammaren,,,,RENSEANLEGG,1224,,,042.922,5.76498,59.83341,,,
503,1224AL05,Eidsmarka (23.2),,,,RENSEANLEGG,1224,,,042.94,5.6812,59.79627,,,
504,1224AL06,Sætreneset (22.1),,,,RENSEANLEGG,1224,,,042.94,5.67355,59.78349,,,
505,1224AL07,Valen sykehus (16.9),,,,RENSEANLEGG,1224,,,042.922,5.78738,59.83085,,,
506,1224AL08,"Valen, Eikeland (16.3",,,,RENSEANLEGG,1224,,,042.93B,5.73804,59.83323,,,
507,1224AL09,Ølve (1.2-1.3),,,,RENSEANLEGG,1224,,,053.52,5.81301,60.01077,,,
508,1224AL10,Varaldsøy (3.1),,,,RENSEANLEGG,1224,,,053.3,5.97156,60.09224,,,
509,1224AL12,"Ænes, Apalevika (5.2)",,,,RENSEANLEGG,1224,,,046.12,6.11303,60.09132,,,
510,1224AL13,Løfallstrand (6.1),,,,RENSEANLEGG,1224,,,045.40,6.00354,60.02737,,,
511,1224AL14,Rosendal (7.1-7.10),,,,RENSEANLEGG,1224,,,045.40,6.00874,59.98975,,,
512,1224AL15,Seimsfoss (8.1-8.5),,,,RENSEANLEGG,1224,,,045.322,5.99486,59.96473,,,
513,1224AL16,Omvikedalen (9.1-9.3),,,,RENSEANLEGG,1224,,,045.310,5.97581,59.95755,,,
514,1224AL17,Uskedalen (10.1-10.10,,,,RENSEANLEGG,1224,,,045.22,5.85457,59.93224,,,
515,1224AL18,Herøysund (11.1 -11.4,,,,RENSEANLEGG,1224,,,045.1,5.79113,59.92172,,,
516,1224AL19,Longgota (12.1),,,,RENSEANLEGG,1224,,,045.1,5.77442,59.89075,,,
517,1224AL20,Husnes (13.1-13.7),,,,RENSEANLEGG,1224,,,045.1,5.74027,59.8652,,,
518,1224AL21,Sunde (15.4),,,,RENSEANLEGG,1224,,,042.932,5.71271,59.83664,,,
519,1224AL23,Sandvoll (17.1-17.2),,,,RENSEANLEGG,1224,,,042.91,5.81264,59.80945,,,
520,1224AL24,Høylandsbygd (18.1-18,,,,RENSEANLEGG,1224,,,042.94,5.80486,59.78815,,,
521,1224AL25,Landamarka (20.1-20.2,,,,RENSEANLEGG,1224,,,042.94,5.73228,59.78276,,,
522,1224AL26,Sæbøvik (21.1-21.5),,,,RENSEANLEGG,1224,,,042.94,5.71121,59.79751,,,
523,1224AL27,Eidsvik (23.1),,,,RENSEANLEGG,1224,,,042.94,5.68453,59.79684,,,
524,1227AL00,Sætveithagen,,,,RENSEANLEGG,1227,,,047.21,6.24062,60.27554,,,
525,1227AL01,Jondal Sentrum,,,,RENSEANLEGG,1227,,,047.21,6.25145,60.27576,,,
526,1227AL02,Herand,,,,RENSEANLEGG,1227,,,047.31,6.37623,60.34388,,,
527,1228AL01,Skare,,,,RENSEANLEGG,1228,,,048.E0,6.58772,59.93377,,,
528,1228AL14,Røldal,,,,RENSEANLEGG,1228,,,036.E40,6.77563,59.81402,,,
529,1228AL16,Hilldal,,,,RENSEANLEGG,1228,,,048.C0,6.56531,59.99535,,,
530,1228AL17,Odda Sentrum (Holmen),,,,RENSEANLEGG,1228,,,048.410,6.53647,60.09363,,,
531,1231AL00,Lægena,,,,RENSEANLEGG,1231,,,049.4A,6.66615,60.31973,,,
532,1231AL01,Klokkargarden,,,,RENSEANLEGG,1231,,,047.40,6.55984,60.43364,,,
533,1231AL02,Segelgjerd,,,,RENSEANLEGG,1231,,,049.31,6.60764,60.22838,,,
534,1231AL04,Utne,,,,RENSEANLEGG,1231,,,047.40,6.62338,60.42228,,,
535,1231AL08,Hauso,,,,RENSEANLEGG,1231,,,048.31,6.55485,60.18537,,,
536,1231AL09,Hordatun,,,,RENSEANLEGG,1231,,,049.41,6.65453,60.31771,,,
537,1231AL10,Syreflot,,,,RENSEANLEGG,1231,,,048.21,6.59859,60.29021,,,
538,1231AL13,Flisabakken,,,,RENSEANLEGG,1231,,,049.42,6.65734,60.32897,,,
539,1231AL16,Kinsarvik,,,,RENSEANLEGG,1231,,,050.11,6.72016,60.37629,,,
540,1231AL21,Nordnes,,,,RENSEANLEGG,1231,,,048.31,6.56861,60.20658,,,
541,1231AL30,Ytrehagen,,,,RENSEANLEGG,1231,,,047.40,6.61126,60.42651,,,
542,1231AL36,Lofthus sentrum,,,,RENSEANLEGG,1231,,,049.42,6.6575,60.32672,,,
543,1232AL01,Øvre Eidfjord,,,,RENSEANLEGG,1232,,,050.A9,7.12191,60.4248,,,
544,1232AL03,Isdøla,,,,RENSEANLEGG,1232,,,050.BA,7.26379,60.42134,,,
545,1232AL10,Eidfjord RA,,,,RENSEANLEGG,1232,,,050.32,7.06677,60.46622,,,
546,1233AL00,Hjeltnes RA,,,,RENSEANLEGG,1233,,,051.31,6.92228,60.56373,,,
547,1233AL01,Finsehytta,,,,RENSEANLEGG,1233,,,012.CK3,7.50634,60.59805,,,
548,1233AL02,Finse Hotell 1222,,,,RENSEANLEGG,1233,,,012.CK3,7.50426,60.60342,,,
549,1234AL00,Røynstrand,,,,RENSEANLEGG,1234,,,052.1A,6.72523,60.52442,,,
550,1235AL01,Voss Reinseanlegg,,,,RENSEANLEGG,1235,,,062.E12,6.41076,60.61675,,,
551,1235AL18,Vinje,,,,RENSEANLEGG,1235,,,062.H2,6.50696,60.79105,,,
552,1235AL24,Framnes,,,,RENSEANLEGG,1235,,,062.GB,6.56263,60.78399,,,
553,1235AL27,Evanger,,,,RENSEANLEGG,1235,,,062.C20,6.1147,60.64793,,,
554,1235AL29,Kroken,,,,RENSEANLEGG,1235,,,062.D,6.2255,60.64536,,,
555,1235AL30,Bolstad,,,,RENSEANLEGG,1235,,,062.A,5.96824,60.64308,,,
556,1235AL32,Haugsvik,,,,RENSEANLEGG,1235,,,071.C,6.64939,60.80351,,,
557,1235AL35,Styve,,,,RENSEANLEGG,1235,,,062.B0,6.10544,60.65118,,,
558,1238AL02,Laupsa,,,,RENSEANLEGG,1238,,,052.61,6.22781,60.38398,,,
559,1238AL04,"Mundheim, Salbuvik",,,,RENSEANLEGG,1238,,,053.41,5.92387,60.16162,,,
560,1238AL10,Vikøy,,,,RENSEANLEGG,1238,,,052.73,6.18492,60.34973,,,
561,1238AL14,Oma Sentrum,,,,RENSEANLEGG,1238,,,053.22,5.97221,60.21579,,,
562,1238AL15,Bru- Tangerås,,,,RENSEANLEGG,1238,,,053.22,6.01386,60.26253,,,
563,1238AL16,Tørrvikbygd,,,,RENSEANLEGG,1238,,,052.80,6.16967,60.30099,,,
564,1238AL17,Lilleveit I,,,,RENSEANLEGG,1238,,,052.313,6.47399,60.4392,,,
565,1238AL18,Auganes/Lilletveit II,,,,RENSEANLEGG,1238,,,052.313,6.4453,60.43245,,,
566,1241AL00,Opsalnes,,,,RENSEANLEGG,1241,,,055.1,5.62564,60.20376,,,
567,1241AL01,Sævareid,,,,RENSEANLEGG,1241,,,053.A,5.76248,60.18921,,,
568,1241AL02,Baldersheim,,,,RENSEANLEGG,1241,,,053.72,5.74254,60.14469,,,
569,1241AL03,Strandvik,,,,RENSEANLEGG,1241,,,053.8,5.66828,60.15721,,,
570,1241AL04,Holmefjord,,,,RENSEANLEGG,1241,,,055.31,5.66908,60.28805,,,
571,1241AL05,Opsalmarka,,,,RENSEANLEGG,1241,,,055.1,5.59962,60.2022,,,
572,1241AL10,Utlebøvika,,,,RENSEANLEGG,1241,,,055.1,5.60505,60.19335,,,
573,1241AL11,Kråkevågen,,,,RENSEANLEGG,1241,,,055.1,5.62896,60.20654,,,
574,1241AL12,Venjaneset,,,,RENSEANLEGG,1241,,,055.1,5.59872,60.20217,,,
575,1241AL13,Strandli,,,,RENSEANLEGG,1241,,,055.1,5.62933,60.20296,,,
576,1241AL14,Helland,,,,RENSEANLEGG,1241,,,055.220,5.71931,60.24207,,,
577,1241AL15,Eikelandsosen,,,,RENSEANLEGG,1241,,,055.220,5.73887,60.24525,,,
578,1242AL00,Nordbygda,,,,RENSEANLEGG,1242,,,055.52,5.72109,60.40476,,,
579,1242AL01,Haga,,,,RENSEANLEGG,1242,,,055.510,5.76645,60.38701,,,
580,1242AL04,Gjerde/Steinsland,,,,RENSEANLEGG,1242,,,055.510,5.77144,60.39162,,,
581,1242AL05,Indre Tysse,,,,RENSEANLEGG,1242,,,055.52,5.72291,60.40481,,,
582,1242AL06,Rolvsvåg,,,,RENSEANLEGG,1242,,,055.54,5.63011,60.33598,,,
583,1242AL07,Våge,,,,RENSEANLEGG,1242,,,055.60,5.62654,60.31792,,,
584,1243AL00,Søviknes,,,,RENSEANLEGG,1243,,,056.1,5.37932,60.20937,,,
585,1243AL04,Bjørnevik,,,,RENSEANLEGG,1243,,,055.72,5.4513,60.14152,,,
586,1243AL05,Sundøy,,,,RENSEANLEGG,1243,,,056.1,5.37605,60.14723,,,
587,1243AL07,Askvikneset,,,,RENSEANLEGG,1243,,,056.1,5.38224,60.17503,,,
588,1243AL08,Søvikvågen,,,,RENSEANLEGG,1243,,,056.1,5.38271,60.21261,,,
589,1243AL10,Solstrandfjordhotell,,,,RENSEANLEGG,1243,,,055.71,5.48814,60.18939,,,
590,1243AL12,"Halhjem, Auredalen",,,,RENSEANLEGG,1243,,,056.1,5.43319,60.14094,,,
591,1243AL13,"Hovlandsvik, Kysthosp",,,,RENSEANLEGG,1243,,,056.1,5.39478,60.17934,,,
592,1243AL14,Hagavik,,,,RENSEANLEGG,1243,,,056.1,5.39911,60.17936,,,
593,1243AL15,Skeisleira,,,,RENSEANLEGG,1243,,,056.1,5.40432,60.17097,,,
594,1243AL19,Svensvika,,,,RENSEANLEGG,1243,,,056.1,5.35443,60.17849,,,
595,1243AL20,Askvikvågen,,,,RENSEANLEGG,1243,,,056.1,5.38776,60.17954,,,
596,1243AL22,Solstrandsfjæra,,,,RENSEANLEGG,1243,,,055.71,5.48474,60.1875,,,
597,1243AL23,Nore Øyane Skule,,,,RENSEANLEGG,1243,,,056.1,5.34888,60.17573,,,
598,1243AL24,Askvik,,,,RENSEANLEGG,1243,,,056.1,5.37708,60.17524,,,
599,1243AL26,Kongshaug,,,,RENSEANLEGG,1243,,,056.1,5.38301,60.15004,,,
600,1243AL27,Nordstølen - Blindefo,,,,RENSEANLEGG,1243,,,056.1,5.39846,60.15136,,,
601,1243AL29,Gjelevika,,,,RENSEANLEGG,1243,,,056.1,5.37521,60.13982,,,
602,1243AL30,Lepsøy,,,,RENSEANLEGG,1243,,,056.1,5.38867,60.15186,,,
603,1243AL31,Askvik sjø og fritid,,,,RENSEANLEGG,1243,,,056.1,5.37984,60.17474,,,
604,1243AL33,Moldegård,,,,RENSEANLEGG,1243,,,055.71,5.49391,60.18987,,,
605,1243AL34,Moldefjæra,,,,RENSEANLEGG,1243,,,055.71,5.49368,60.18999,,,
606,1245AL00,Klokkarvik Sør,,,,RENSEANLEGG,1245,,,057.1,5.15449,60.21785,,,
607,1245AL01,Skogsvåg,,,,RENSEANLEGG,1245,,,057.1,5.11115,60.26332,,,
608,1245AL10,Glesnes,,,,RENSEANLEGG,1245,,,057.20,5.04203,60.20643,,,
609,1245AL17,"Eidesjøen, Hammerslan",,,,RENSEANLEGG,1245,,,057.20,5.06451,60.24486,,,
610,1245AL18,Forland,,,,RENSEANLEGG,1245,,,057.1,5.10768,60.18591,,,
611,1245AL19,Austefjorden,,,,RENSEANLEGG,1245,,,057.20,5.09372,60.1819,,,
612,1245AL20,Kausland,,,,RENSEANLEGG,1245,,,057.20,5.05427,60.22478,,,
613,1245AL22,Skoge,,,,RENSEANLEGG,1245,,,057.1,5.08717,60.26711,,,
614,1245AL23,Klokkarvik Nord,,,,RENSEANLEGG,1245,,,057.1,5.15647,60.22249,,,
615,1245AL24,Telavåg,,,,RENSEANLEGG,1245,,,057.20,4.98176,60.259,,,
616,1245AL25,Kleppe,,,,RENSEANLEGG,1245,,,057.1,5.14691,60.18544,,,
617,1246AL02,Landro,,,,RENSEANLEGG,1246,,,057.20,4.96111,60.42334,,,
618,1246AL03,Vindenes,,,,RENSEANLEGG,1246,,,057.1,5.00289,60.42371,,,
619,1246AL05,Knappskog,,,,RENSEANLEGG,1246,,,057.1,5.05723,60.38039,,,
620,1246AL06,Storsteinen,,,,RENSEANLEGG,1246,,,057.1,5.00448,60.42556,,,
621,1246AL08,Søre Bjorøy,,,,RENSEANLEGG,1246,,,057.1,5.18283,60.31575,,,
622,1246AL09,Lie,,,,RENSEANLEGG,1246,,,057.1,5.13253,60.3044,,,
623,1246AL10,CCB-Ågotnes,,,,RENSEANLEGG,1246,,,057.1,5.00953,60.41402,,,
624,1246AL12,Møvik,,,,RENSEANLEGG,1246,,,057.20,5.00231,60.3248,,,
625,1246AL13,Søre Straumetoppen,,,,RENSEANLEGG,1246,,,057.1,5.10281,60.34704,,,
626,1246AL15,Søre Lie,,,,RENSEANLEGG,1246,,,057.1,5.13046,60.29895,,,
627,1246AL19,Skålevik(P),,,,RENSEANLEGG,1246,,,057.20,4.98544,60.34407,,,
628,1246AL20,Nordre Bjorøy,,,,RENSEANLEGG,1246,,,057.1,5.16869,60.305,,,
629,1135AL04,Hyttefelt Øyvind Årth,,,,RENSEANLEGG,1135,,,037.32,6.25292,59.63089,,,
630,1141AL00,Kindingstad og Berge,,,,RENSEANLEGG,1141,,,034.5,5.82326,59.14466,,,
631,1141AL01,"Garsvågen, Talgje",,,,RENSEANLEGG,1141,,,034.4,5.84464,59.1025,,,
632,1141AL02,Judaberg,,,,RENSEANLEGG,1141,,,034.5,5.87508,59.17109,,,
633,1141AL03,"Gjellarvika, Fogn",,,,RENSEANLEGG,1141,,,034.2,5.89555,59.13833,,,
634,1141AL04,"Møllelia, Eidssund.",,,,RENSEANLEGG,1141,,,034.1,5.94306,59.23696,,,
635,1141AL05,Skartveit,,,,RENSEANLEGG,1141,,,034.2,5.95685,59.1964,,,
636,1141AL08,Vestbø,,,,RENSEANLEGG,1141,,,034.5,5.80449,59.18464,,,
637,1141AL09,"Gongstø 1, Talgje",,,,RENSEANLEGG,1141,,,034.4,5.85909,59.10689,,,
638,1141AL10,Bjøravåg Avløpsanlegg,,,,RENSEANLEGG,1141,,,034.5,5.82779,59.14297,,,
639,1141AL11,Reilstadbygda på Finn,,,,RENSEANLEGG,1141,,,034.5,5.84553,59.14979,,,
640,1141AL12,Steinnesvåg,,,,RENSEANLEGG,1141,,,034.5,5.81411,59.1678,,,
641,1141AL17,Fårasundet,,,,RENSEANLEGG,1141,,,034.6,5.85073,59.26441,,,
642,1141AL20,Steinnesbygda,,,,RENSEANLEGG,1141,,,034.5,5.80039,59.16477,,,
643,1141AL21,Nåden og Kvame,,,,RENSEANLEGG,1141,,,034.5,5.86002,59.16353,,,
644,1141AL27,Nedre Landa.,,,,RENSEANLEGG,1141,,,034.5,5.81419,59.18578,,,
645,1141AL32,Helgøysund på Nord-Ta,,,,RENSEANLEGG,1141,,,034.6,5.83659,59.22767,,,
646,1141AL35,"Ramsvik, Kyrkjøy",,,,RENSEANLEGG,1141,,,034.6,5.8406,59.26012,,,
647,1141AL36,Sjelsneshammaren,,,,RENSEANLEGG,1141,,,034.6,5.87407,59.24935,,,
648,1141AL37,Øvre Landa og Nordbø,,,,RENSEANLEGG,1141,,,034.5,5.81377,59.18847,,,
649,1141AL40,Runestad,,,,RENSEANLEGG,1141,,,034.2,5.93225,59.12887,,,
650,1142AL00,Østhusvik,,,,RENSEANLEGG,1142,,,034.4,5.77381,59.09401,,,
651,1142AL01,"Vikevåg, Hovedutslipp",,,,RENSEANLEGG,1142,,,034.4,5.70245,59.09131,,,
652,1142AL03,"Nygårdsvika, Sokn",,,,RENSEANLEGG,1142,,,034.4,5.66987,59.04913,,,
653,1142AL04,Finnesand,,,,RENSEANLEGG,1142,,,034.4,5.60749,59.09784,,,
654,1142AL05,Eltarvåg,,,,RENSEANLEGG,1142,,,034.4,5.71845,59.12497,,,
655,1142AL06,Vestre Åmøy,,,,RENSEANLEGG,1142,,,034.4,5.68587,59.04594,,,
656,1142AL14,Reianesvågen,,,,RENSEANLEGG,1142,,,034.4,5.6017,59.12105,,,
657,1142AL15,"Bru, Lineosen",,,,RENSEANLEGG,1142,,,034.4,5.65716,59.03622,,,
658,1144AL00,Vollsøy,,,,RENSEANLEGG,1144,,,034.3,5.4162,59.05582,,,
659,1145AL00,Foresvik v/Bokn Plast,,,,RENSEANLEGG,1145,,,039.6,5.44159,59.2318,,,
660,1145AL02,Alvestad Sør,,,,RENSEANLEGG,1145,,,039.6,5.45901,59.2161,,,
661,1145AL03,Knarholmen,,,,RENSEANLEGG,1145,,,039.6,5.46131,59.21077,,,
662,1145AL04,Alvestad Nord,,,,RENSEANLEGG,1145,,,039.6,5.45495,59.22138,,,
663,1145AL05,Føresvik (Nord),,,,RENSEANLEGG,1145,,,039.6,5.45558,59.23218,,,
664,1145AL10,Øyren,,,,RENSEANLEGG,1145,,,039.6,5.46916,59.21774,,,
665,1146AL00,Slåttevik,,,,RENSEANLEGG,1146,,,039.52,5.46018,59.31277,,,
666,1146AL01,Nypedalen,,,,RENSEANLEGG,1146,,,039.1A,5.80036,59.35037,,,
667,1146AL02,"Notaflot, Skjoldastra",,,,RENSEANLEGG,1146,,,039.41,5.61752,59.42565,,,
668,1146AL06,Grinde,,,,RENSEANLEGG,1146,,,039.32,5.53447,59.43793,,,
669,1146AL13,Nedstrand,,,,RENSEANLEGG,1146,,,039.11,5.85731,59.34367,,,
670,1146AL14,Bådsvik,,,,RENSEANLEGG,1146,,,039.2,5.6243,59.42363,,,
671,1146AL16,Susort,,,,RENSEANLEGG,1146,,,039.52,5.46523,59.28954,,,
672,1146AL25,Kårstø,,,,RENSEANLEGG,1146,,,039.52,5.52488,59.27406,,,
673,1149AL00,1.1 Rusneset,,,,RENSEANLEGG,1149,,,040.1,5.32445,59.27707,,,
674,1149AL06,3.1 Snik,,,,RENSEANLEGG,1149,,,039.80,5.31992,59.35155,,,
675,1149AL08,4.1 Vikjå,,,,RENSEANLEGG,1149,,,040.1,5.24865,59.40704,,,
676,1149AL16,7.2 Oliversbukt (D13-,,,,RENSEANLEGG,1149,,,040.2,5.17469,59.26555,,,
677,1149AL17,7.3 Ferkingstadhavn (,,,,RENSEANLEGG,1149,,,040.2,5.18015,59.23244,,,
678,1149AL18,8.1 Sandve,,,,RENSEANLEGG,1149,,,040.2,5.19005,59.1752,,,
679,1149AL19,9.1 Hålandssjøen,,,,RENSEANLEGG,1149,,,040.2,5.24034,59.1479,,,
680,1149AL26,12.2 Hest,,,,RENSEANLEGG,1149,,,039.72,5.36739,59.40143,,,
681,1149AL27,12.3 Kolnes (G7-1),,,,RENSEANLEGG,1149,,,039.72,5.37401,59.38903,,,
682,1149AL28,Røyksund (G10-1),,,,RENSEANLEGG,1149,,,039.72,5.33734,59.32058,,,
683,1149AL31,1.2 Gofarnes,,,,RENSEANLEGG,1149,,,040.1,5.3124,59.29111,,,
684,1149AL32,2.1 Husøy,,,,RENSEANLEGG,1149,,,040.1,5.30227,59.33577,,,
685,1149AL33,3.3 Bø,,,,RENSEANLEGG,1149,,,040.1,5.28345,59.3631,,,
686,1149AL35,3.2 Vormedal,,,,RENSEANLEGG,1149,,,039.80,5.31602,59.35504,,,
687,1149AL36,3.5 Storesund,,,,RENSEANLEGG,1149,,,040.1,5.27503,59.39162,,,
688,1149AL37,4.2 Osneshavn,,,,RENSEANLEGG,1149,,,040.2,5.23625,59.40758,,,
689,1149AL38,5.1 Visnes (E9-1),,,,RENSEANLEGG,1149,,,040.2,5.2195,59.35226,,,
690,1149AL39,5.2 Kvalavåg,,,,RENSEANLEGG,1149,,,040.2,5.21061,59.32144,,,
691,1149AL40,6.1 Sevikevik (E11-3),,,,RENSEANLEGG,1149,,,040.2,5.22197,59.2984,,,
692,1149AL41,6.2. Manneshavn,,,,RENSEANLEGG,1149,,,040.2,5.19384,59.23554,,,
693,1149AL42,6.3 Sævlandsvik,,,,RENSEANLEGG,1149,,,040.2,5.19509,59.27154,,,
694,1149AL43,7.1 Tjøsvollsjøen,,,,RENSEANLEGG,1149,,,040.2,5.19034,59.26691,,,
695,1149AL44,9.2 Vågen-Varden (E18,,,,RENSEANLEGG,1149,,,040.2,5.25304,59.14378,,,
696,1149AL45,9.3 Vikesjøen,,,,RENSEANLEGG,1149,,,040.2,5.27348,59.14886,,,
697,1149AL47,11.2 Bråtafeltet,,,,RENSEANLEGG,1149,,,040.1,5.32814,59.2592,,,
698,1149AL48,11.1 Skjærsund,,,,RENSEANLEGG,1149,,,040.1,5.32746,59.26547,,,
699,1149AL96,11.5 Melstokke,,,,RENSEANLEGG,1149,,,040.1,5.32656,59.25689,,,
700,1154AL00,Vikedal,,,,RENSEANLEGG,1160,,,038.22,5.90018,59.49251,,,
701,1154AL01,Isvik Renseanlegg,,,,RENSEANLEGG,1160,,,039.31,5.58133,59.49981,,,
702,1154AL10,Sandeid Østbø,,,,RENSEANLEGG,1160,,,038.32,5.86369,59.54286,,,
703,1154AL11,Sandeid Sentrum,,,,RENSEANLEGG,1160,,,038.3Z,5.85966,59.54815,,,
704,0628AL67,Solbergstøa Camping,,,,RENSEANLEGG,628,,,010.21,10.60015,59.57281,,,
705,0631AL00,Blestølen,,,,RENSEANLEGG,631,,,015.F20,9.44559,59.76889,,,
706,0631AL01,Lyngdal,,,,RENSEANLEGG,631,,,015.EC,9.52315,59.90417,,,
707,0631AL20,Svene,,,,RENSEANLEGG,631,,,015.E7,9.5773,59.7939,,,
708,0631AL30,Flesberg,,,,RENSEANLEGG,631,,,015.F3,9.42669,59.86003,,,
709,0632AL53,Vegglifjell Avløpsren,,,,RENSEANLEGG,632,,,015.G8Z,9.04926,60.04413,,,
710,0633AL00,Vrenne Renseanlegg,,,,RENSEANLEGG,633,,,015.H6,9.00428,60.23665,,,
711,0633AL31,Stormogen,,,,RENSEANLEGG,633,,,015.JB60,8.78676,60.26192,,,
712,0633AL69,Rødberg Renseanlegg,,,,RENSEANLEGG,633,,,015.JA3,8.94939,60.26747,,,
713,0633AL70,Øygardsgrend,,,,RENSEANLEGG,633,,,015.L11,8.92577,60.32223,,,
714,0633AL71,Norefjord Renseanlegg,,,,RENSEANLEGG,633,,,015.H6,9.01171,60.16871,,,
715,0633AL72,Øvre Uvdal Renseanleg,,,,RENSEANLEGG,633,,,015.JC22,8.55329,60.28737,,,
716,0701AL01,Falkensten,,,,RENSEANLEGG,701,,,013.32,10.44839,59.43885,,,
717,0701AL03,Nykirke,,,,RENSEANLEGG,701,,,013.2,10.38493,59.42796,,,
718,0701AL04,Åsgårdstrand,,,,RENSEANLEGG,701,,,013.4,10.46635,59.35906,,,
719,0701AL05,Bastøya,,,,RENSEANLEGG,701,,,013.4,10.51988,59.38608,,,
720,0702AL30,Holmestrand,,,,RENSEANLEGG,702,,,013.2,10.32588,59.48517,,,
721,0704AL40,TAU Vallø,,,,RENSEANLEGG,704,,,013.4,10.49826,59.26196,,,
722,0706AL15,Sandefjord Renseanleg,,,,RENSEANLEGG,706,,,015.210,10.21484,59.08583,,,
723,0709AL01,Lillevik Renseanlegg,,,,RENSEANLEGG,709,,,015.42,10.02588,59.01663,,,
724,0709AL04,Kvelde,,,,RENSEANLEGG,709,,,015.B2,9.97666,59.1936,,,
725,0709AL05,Hvarnes,,,,RENSEANLEGG,709,,,015.B3Z,9.94435,59.29649,,,
726,0711AL40,Bokerøya Renseanlegg,,,,RENSEANLEGG,711,,,012.22,10.40506,59.59086,,,
727,0713AL20,Lersbryggen,,,,RENSEANLEGG,713,,,013.12,10.25411,59.56921,,,
728,0713AL50,Bjerkøya RA,,,,RENSEANLEGG,713,,,013.110,10.34756,59.51706,,,
729,0714AL00,Eidsfoss,,,,RENSEANLEGG,714,,,012.AC,10.03877,59.60149,,,
730,0714AL05,Vike (Hof Sentrum),,,,RENSEANLEGG,714,,,012.AD1,10.09157,59.54896,,,
731,0714AL27,Sundbyfoss,,,,RENSEANLEGG,714,,,012.AE1,10.13669,59.51218,,,
732,0716AL08,Kjønnerød,,,,RENSEANLEGG,716,,,014.CZ,10.16385,59.38389,,,
733,0716AL10,Vivestad,,,,RENSEANLEGG,716,,,014.AZ,10.13603,59.42101,,,
734,0716AL22,Undrumsdal,,,,RENSEANLEGG,716,,,014.BAZ,10.35929,59.37103,,,
735,0716AL36,Søbyholmen,,,,RENSEANLEGG,716,,,014.DZ,10.29139,59.42033,,,
736,0719AL00,Torp,,,,RENSEANLEGG,719,,,015.ACZ,10.08779,59.29716,,,
737,0719AL02,Vidaråsen Landsby,,,,RENSEANLEGG,719,,,015.ACZ,10.07855,59.28493,,,
738,0719AL24,Andebu Sentrum,,,,RENSEANLEGG,719,,,014.AZ,10.19686,59.30231,,,
739,0719AL58,Kodal,,,,RENSEANLEGG,719,,,015.AE,10.13998,59.20646,,,
740,0719AL59,Høyjord,,,,RENSEANLEGG,719,,,014.AZ,10.13974,59.35661,,,
741,0720AL17,Fossnes Sentralhjem,,,,RENSEANLEGG,720,,,014.AZ,10.25564,59.27904,,,
742,0720AL33,Vårnes,,,,RENSEANLEGG,720,,,014.42Z,10.33193,59.20574,,,
743,0722AL01,Veierland - Tangen,,,,RENSEANLEGG,722,,,014.2,10.33737,59.15333,,,
744,0722AL02,Veierland - Krika,,,,RENSEANLEGG,722,,,014.2,10.35295,59.14094,,,
745,0723AL01,Bekkevika Renseanlegg,,,,RENSEANLEGG,723,,,014.3,10.38428,59.11448,,,
746,0728AL01,Steinsholt,,,,RENSEANLEGG,728,,,015.B6,9.88524,59.31016,,,
747,0728AL29,Svarstad,,,,RENSEANLEGG,728,,,015.C20,9.97474,59.3975,,,
748,0805AL01,Knarrdalsstrand,,,,RENSEANLEGG,805,,,016.A21,9.62709,59.13698,,,
749,0805AL18,Langangen RA,,,,RENSEANLEGG,805,,,016.210,9.79934,59.08328,,,
750,0805AL29,Heistad RA,,,,RENSEANLEGG,805,,,016.32,9.69699,59.08034,,,
751,0806AL30,Elstrøm RA,,,,RENSEANLEGG,806,,,016.AA0,9.58914,59.20057,,,
752,0807AL00,Gransherad,,,,RENSEANLEGG,807,,,016.F522,9.04588,59.69082,,,
753,0807AL35,Ramsflog RA,,,,RENSEANLEGG,807,,,016.F21,9.25289,59.55954,,,
754,0807AL36,Bolkesjø RA,,,,RENSEANLEGG,807,,,016.F3B,9.27091,59.7201,,,
755,0811AL35,Siljan,,,,RENSEANLEGG,811,,,015.4E2,9.73176,59.27749,,,
756,0814AL00,Rakkestad,,,,RENSEANLEGG,814,,,017.13,9.63934,58.96382,,,
757,0814AL02,Skjerkøya,,,,RENSEANLEGG,814,,,016.5,9.64509,59.0572,,,
758,0814AL37,Salen - Langesund,,,,RENSEANLEGG,814,,,016.5,9.7428,59.0203,,,
759,0814AL38,Herre,,,,RENSEANLEGG,814,,,016.42,9.57565,59.10647,,,
760,0815AL01,Kragerø renseanlegg,,,,RENSEANLEGG,815,,,017.222,9.41622,58.87403,,,
761,0815AL02,Stabbestad RA,,,,RENSEANLEGG,815,,,017.32,9.39666,58.84888,,,
762,0815AL08,Helle Renseanlegg,,,,RENSEANLEGG,815,,,017.222,9.37661,58.8993,,,
763,0815AL38,Kil,,,,RENSEANLEGG,815,,,017.31,9.30364,58.89051,,,
764,0815AL39,Finsbudalen  Renseanl,,,,RENSEANLEGG,815,,,018.11,9.37355,58.8009,,,
765,0817AL00,Gautefallheia RA,,,,RENSEANLEGG,817,,,017.F2B,8.73664,59.06931,,,
766,0817AL01,Bostrak RA,,,,RENSEANLEGG,817,,,017.F1,8.89522,59.11354,,,
767,0817AL06,Prestestranda RA,,,,RENSEANLEGG,817,,,017.D4,9.06633,59.0974,,,
768,0817AL40,Neslandsvatn RA,,,,RENSEANLEGG,817,,,017.D2Z,9.17044,58.97248,,,
769,0817AL42,Henneseid RA,,,,RENSEANLEGG,817,,,017.D12,9.19879,59.06314,,,
770,0819AL40,Lunde,,,,RENSEANLEGG,819,,,016.BA61,9.10887,59.30123,,,
771,0819AL41,Søvitt,,,,RENSEANLEGG,819,,,016.B4,9.2843,59.28121,,,
772,0819AL42,Vrangfoss,,,,RENSEANLEGG,819,,,016.BA23,9.20718,59.29842,,,
773,0819AL43,Svenseid,,,,RENSEANLEGG,819,,,016.BA3Z,9.08963,59.32998,,,
774,0822AL00,Nordagutu Avløpsdistr,,,,RENSEANLEGG,822,,,016.D1,9.32069,59.41852,,,
775,0822AL01,Gvarv,,,,RENSEANLEGG,822,,,016.CA2,9.17777,59.38198,,,
776,0822AL02,Hjuksebø,,,,RENSEANLEGG,822,,,016.E12,9.318,59.50743,,,
777,0822AL03,Akkerhaugen,,,,RENSEANLEGG,822,,,016.C9,9.25441,59.39173,,,
778,0826AL00,Miland RA,,,,RENSEANLEGG,826,,,016.H11,8.7746,59.92697,,,
779,0826AL53,Skinnarbu RA,,,,RENSEANLEGG,826,,,016.J2,8.29602,59.81394,,,
780,0826AL54,Austbygde RA,,,,RENSEANLEGG,826,,,016.G512,8.8154,59.98899,,,
781,0826AL55,Rjukan,,,,RENSEANLEGG,826,,,016.H411,8.68926,59.88565,,,
782,0827AL01,Sauland RA,,,,RENSEANLEGG,827,,,016.EA21,8.96987,59.61198,,,
783,0827AL05,Tuddal Rensedistrikt,,,,RENSEANLEGG,827,,,016.EAC10,8.80071,59.74922,,,
784,0828AL42,Flatdal RA,,,,RENSEANLEGG,828,,,016.CC7,8.58422,59.55744,,,
785,0829AL11,Morgedal RA,,,,RENSEANLEGG,829,,,016.BC1C11,8.41979,59.47914,,,
786,0829AL13,Vrådal RA,,,,RENSEANLEGG,829,,,019.F3,8.48669,59.32765,,,
787,0829AL44,Kviteseid RA,,,,RENSEANLEGG,829,,,016.BC11,8.49509,59.40123,,,
788,0830AL01,Treungen RA,,,,RENSEANLEGG,830,,,019.F1,8.51581,59.02198,,,
789,0830AL02,Nissedal,,,,RENSEANLEGG,830,,,019.F1,8.49976,59.1674,,,
790,0830AL04,Felle RA,,,,RENSEANLEGG,830,,,019.D3A3Z,8.74659,58.90319,,,
791,0830AL06,Naurak reinseanlegg,,,,RENSEANLEGG,830,,,019.F211,8.46979,59.05835,,,
792,0831AL49,Hauggrend,,,,RENSEANLEGG,831,,,019.H220,8.13379,59.32174,,,
793,0833AL00,Hallbjønnsekken,,,,RENSEANLEGG,833,,,019.J2Z,7.74987,59.35517,,,
794,0833AL25,Dalen RA,,,,RENSEANLEGG,833,,,016.BD5,8.01344,59.4425,,,
795,0833AL26,Lårdal RA,,,,RENSEANLEGG,833,,,016.BD32,8.18586,59.42355,,,
796,0833AL45,Høydalsmo RA,,,,RENSEANLEGG,833,,,016.BC1AC,8.20118,59.49416,,,
797,0833AL46,Åmdals Verk RA,,,,RENSEANLEGG,833,,,019.H42,8.03908,59.37531,,,
798,0834AL27,Rauland - Libru,,,,RENSEANLEGG,834,,,016.BG112,8.02989,59.69908,,,
799,0834AL46,Åmot,,,,RENSEANLEGG,834,,,016.BE520,8.00015,59.56415,,,
800,0834AL47,Vågslid,,,,RENSEANLEGG,834,,,016.BEE32,7.38508,59.76816,,,
801,0834AL49,Haukelid,,,,RENSEANLEGG,834,,,016.BECA,7.59116,59.73731,,,
802,0834AL50,Vesås Septikanlegg,,,,RENSEANLEGG,834,,,016.BEB12,7.85132,59.62085,,,
803,0834AL60,Haukeliseter Fjellsto,,,,RENSEANLEGG,834,,,016.BEG1,7.19325,59.82493,,,
804,0901AL01,Søndeled RA,,,,RENSEANLEGG,901,,,018.31,9.07864,58.75792,,,
805,0901AL02,Bossvika,,,,RENSEANLEGG,901,,,018.322Z,9.10876,58.71659,,,
806,0901AL05,Randvik,,,,RENSEANLEGG,901,,,018.4,9.21576,58.70972,,,
807,0901AL28,Roed,,,,RENSEANLEGG,901,,,018.321Z,9.05439,58.72336,,,
808,0904AL00,Groos Renseeanlegg,,,,RENSEANLEGG,904,,,019.216Z,8.58166,58.32975,,,
809,0904AL01,Homborsund,,,,RENSEANLEGG,904,,,020.110,8.5159,58.26845,,,
810,0906AL01,Narestø,,,,RENSEANLEGG,906,,,018.711,8.93133,58.51903,,,
811,0906AL10,Saulekilen renseanleg,,,,RENSEANLEGG,906,,,019.211,8.74266,58.42438,,,
812,0911AL01,Sunde RA,,,,RENSEANLEGG,911,,,018.3C,9.08835,58.83515,,,
813,0911AL10,Østerholtheia,,,,RENSEANLEGG,911,,,018.3D,9.13043,58.85914,,,
814,0912AL11,Myra RA,,,,RENSEANLEGG,912,,,018.E,8.86695,58.748,,,
815,0912AL12,Ubergsmoen RA,,,,RENSEANLEGG,912,,,018.D,8.82412,58.67341,,,
816,0914AL16,Gjeving,,,,RENSEANLEGG,914,,,018.52,9.12232,58.64383,,,
817,0914AL34,Tvedestrand RA,,,,RENSEANLEGG,914,,,018.630,8.93974,58.62232,,,
818,0919AL03,Neset RA,,,,RENSEANLEGG,919,,,019.B41,8.64815,58.51183,,,
819,0926AL00,Fossbekk RA,,,,RENSEANLEGG,926,,,020.2210,8.36984,58.23862,,,
820,0926AL01,Skottevig Camping RA,,,,RENSEANLEGG,926,,,020.421,8.22507,58.12105,,,
821,0926AL02,Høvåg RA,,,,RENSEANLEGG,926,,,020.32,8.25645,58.163,,,
822,0926AL05,Kjøpmannsvik RA,,,,RENSEANLEGG,926,,,020.421,8.23687,58.15526,,,
823,0928AL00,Herefoss RA,,,,RENSEANLEGG,928,,,020.B3,8.34591,58.52012,,,
824,0928AL53,Birkeland RA,,,,RENSEANLEGG,928,,,020.A7,8.22132,58.33166,,,
825,0929AL19,Nelaug RA,,,,RENSEANLEGG,929,,,019.C12,8.63117,58.65728,,,
826,0929AL21,Åmli RA,,,,RENSEANLEGG,929,,,019.C521,8.48138,58.76319,,,
827,0929AL22,Dølemo RA,,,,RENSEANLEGG,929,,,020.C1,8.34491,58.71182,,,
828,0935AL00,Skaiå RA,,,,RENSEANLEGG,935,,,021.A9,7.89428,58.39019,,,
829,0935AL53,Vatnestraum,,,,RENSEANLEGG,935,,,020.BAC,8.0792,58.412,,,
830,0935AL56,Birketveit RA,,,,RENSEANLEGG,935,,,021.AZ,7.91531,58.45383,,,
831,0937AL00,Moi RA,,,,RENSEANLEGG,937,,,021.B81,7.78119,58.49169,,,
832,0937AL21,Fennefoss,,,,RENSEANLEGG,937,,,021.C11,7.77909,58.577,,,
833,0937AL22,Gautestad RA,,,,RENSEANLEGG,937,,,020.BBF,7.95053,58.65217,,,
834,0938AL60,Byglandsfjord RA,,,,RENSEANLEGG,938,,,021.D1,7.80619,58.66483,,,
835,0940AL01,Valle,,,,RENSEANLEGG,940,,,021.F42,7.52174,59.19271,,,
836,0940AL08,Rysstad,,,,RENSEANLEGG,940,,,021.E62,7.54818,59.08523,,,
837,0941AL22,Bykle RA,,,,RENSEANLEGG,941,,,021.H22,7.35736,59.35286,,,
838,1001AL00,Bredalsholmen,,,,RENSEANLEGG,1001,,,021.230,7.99196,58.10998,,,
839,1001AL09,Odderøya,,,,RENSEANLEGG,1001,,,021.210,7.99982,58.1325,,,
840,1002AL02,Heslandsheimen,,,,RENSEANLEGG,1002,,,022.4A,7.42129,58.06195,,,
841,1002AL03,Grønvika Renseanlegg,,,,RENSEANLEGG,1002,,,022.323,7.46295,58.01934,,,
842,1002AL04,Tregde,,,,RENSEANLEGG,1002,,,022.322,7.55984,58.0097,,,
843,1002AL06,Lundevik,,,,RENSEANLEGG,1002,,,023.1,7.3364,58.03751,,,
844,1002AL07,Farestad/Rosnes,,,,RENSEANLEGG,1002,,,022.322,7.52988,57.99016,,,
845,1003AL02,Åpta,,,,RENSEANLEGG,1003,,,024.512,6.79913,58.18656,,,
846,1003AL05,Huseby,,,,RENSEANLEGG,1003,,,024.710,6.77487,58.07113,,,
847,1004AL00,Kirkehamn,,,,RENSEANLEGG,1004,,,026.2,6.53569,58.23205,,,
848,1004AL01,Sira,,,,RENSEANLEGG,1004,,,026.C,6.6574,58.42094,,,
849,1004AL02,Rasvåg,,,,RENSEANLEGG,1004,,,026.2,6.57801,58.21714,,,
850,1004AL04,Abelnes,,,,RENSEANLEGG,1004,,,026.110,6.64733,58.23753,,,
851,1004AL05,Skådevika,,,,RENSEANLEGG,1004,,,025.610,6.64789,58.28045,,,
852,1014AL00,Skarpengland (2),,,,RENSEANLEGG,1014,,,021.A6AA,7.8721,58.30479,,,
853,1014AL12,Hægeland,,,,RENSEANLEGG,1014,,,021.B6A,7.74796,58.38897,,,
854,1014AL15,Homstean,,,,RENSEANLEGG,1014,,,022.1B5B,7.83047,58.26422,,,
855,1017AL03,Vatneli,,,,RENSEANLEGG,1017,,,022.AC32,7.65238,58.25999,,,
856,1018AL15,Høllen,,,,RENSEANLEGG,1018,,,022.12,7.80293,58.07892,,,
857,1018AL16,Trysnes,,,,RENSEANLEGG,1018,,,022.222,7.71211,58.05805,,,
858,1021AL00,Bjelland Renseanlegg,,,,RENSEANLEGG,1021,,,022.C4,7.52572,58.3857,,,
859,1021AL07,Heddeland Renseanlegg,,,,RENSEANLEGG,1021,,,022.B221,7.52842,58.19754,,,
860,1026AL00,Eikerapen,,,,RENSEANLEGG,1026,,,022.E21,7.3578,58.53906,,,
861,1026AL01,Kyrkjebygda,,,,RENSEANLEGG,1026,,,022.E3,7.41531,58.6067,,,
862,1026AL02,Åknes,,,,RENSEANLEGG,1026,,,022.EB22,7.51726,58.74962,,,
863,1026AL03,Kylland,,,,RENSEANLEGG,1026,,,022.D7,7.422,58.53447,,,
864,1026AL04,Ljosland-Farevatn,,,,RENSEANLEGG,1026,,,022.F83A,7.3157,58.78958,,,
865,1026AL06,Bortelid,,,,RENSEANLEGG,1026,,,022.ED,7.49454,58.82728,,,
866,1027AL00,Konsmo 2,,,,RENSEANLEGG,1027,,,023.B120,7.351,58.28115,,,
867,1027AL01,Byremo,,,,RENSEANLEGG,1027,,,023.EA,7.40113,58.41744,,,
868,1029AL00,Vigmostad,,,,RENSEANLEGG,1029,,,023.A1240,7.33774,58.20013,,,
869,1032AL00,Vemestad,,,,RENSEANLEGG,1032,,,024.B13A,7.1807,58.2429,,,
870,1032AL01,Korshamn,,,,RENSEANLEGG,1032,,,024.18,7.00224,58.02281,,,
871,1032AL02,Svennevik,,,,RENSEANLEGG,1032,,,024.24,7.02272,58.11207,,,
872,1032AL03,"Lyngdal, Sentrum",,,,RENSEANLEGG,1032,,,024.24,7.04113,58.11685,,,
873,1032AL04,Austad,,,,RENSEANLEGG,1032,,,024.2A,7.03633,58.08825,,,
874,1034AL03,Skeie-Eiken,,,,RENSEANLEGG,1034,,,024.C3,7.22755,58.46455,,,
875,1037AL00,Feda Slamavskiller,,,,RENSEANLEGG,1037,,,025.320,6.81985,58.2579,,,
876,1037AL01,Storekvina,,,,RENSEANLEGG,1037,,,025.B3112,6.95647,58.3792,,,
877,1037AL02,Kvinlog,,,,RENSEANLEGG,1037,,,025.B3Z,6.93453,58.52035,,,
878,1037AL03,Jerstad,,,,RENSEANLEGG,1037,,,025.AA,7.03267,58.35457,,,
879,1037AL04,Øye,,,,RENSEANLEGG,1037,,,025.A0,6.89592,58.2758,,,
880,1037AL06,Knaben,,,,RENSEANLEGG,1037,,,025.CC,7.06388,58.66908,,,
881,1046AL10,Handeland renseanlegg,,,,RENSEANLEGG,1046,,,026.H20,6.81961,58.86869,,,
882,1101AL18,Steinodden,,,,RENSEANLEGG,1101,,,027.50,5.97017,58.46832,,,
883,1101AL25,Hestnes,,,,RENSEANLEGG,1101,,,027.2,6.00627,58.41934,,,
884,1102AL09,"Dreggjavika, Bergsage",,,,RENSEANLEGG,1102,,,029.21,5.96773,58.93515,,,
885,1102AL10,"Høle Kai, Apalstø",,,,RENSEANLEGG,1102,,,029.220,6.02152,58.89596,,,
886,1102AL11,Rogaland Psykiatriske,,,,RENSEANLEGG,1102,,,029.12,5.77638,58.89905,,,
887,1102AL14,Horve Leirsted,,,,RENSEANLEGG,1102,,,029.2A,5.9353,58.90697,,,
888,1103AL28,Austre Åmøy,,,,RENSEANLEGG,1103,,,034.4,5.75716,59.03896,,,
889,1449AL24,Rake,,,,RENSEANLEGG,1449,,,088.22,6.79165,61.8697,,,
890,1449AL26,Blakset,,,,RENSEANLEGG,1449,,,088.34,6.53389,61.85932,,,
891,1449AL30,Hestøda,,,,RENSEANLEGG,1449,,,088.32,6.68862,61.88939,,,
892,1449AL31,Floelva,,,,RENSEANLEGG,1449,,,087.52,6.61255,61.8547,,,
893,1449AL32,Utvik sentrum,,,,RENSEANLEGG,1449,,,087.40,6.51758,61.80865,,,
894,1502AL00,RA1 Cap Clara,,,,RENSEANLEGG,1502,,,105.62,7.09527,62.73269,,,
895,1502AL01,RA2 Noisomhed,,,,RENSEANLEGG,1502,,,105.610,7.22727,62.7408,,,
896,1502AL02,RA3 Oppdol,,,,RENSEANLEGG,1502,,,105.41,7.50814,62.77989,,,
897,1502AL04,RA4 Kleive,,,,RENSEANLEGG,1502,,,105.32,7.62477,62.79213,,,
898,1502AL06,RA5 Talset,,,,RENSEANLEGG,1502,,,105.20,7.52104,62.76881,,,
899,1502AL07,RA6 Rovika,,,,RENSEANLEGG,1502,,,105.12,7.41634,62.73014,,,
900,1502AL08,RA7 Raneset,,,,RENSEANLEGG,1502,,,105.11,7.41499,62.71872,,,
901,1502AL09,RA8 Havnvika,,,,RENSEANLEGG,1502,,,104.4,7.43148,62.69556,,,
902,1502AL11,RA10 Bolsoya,,,,RENSEANLEGG,1502,,,105.13,7.31485,62.72563,,,
903,1502AL25,Rusketeigen,,,,RENSEANLEGG,1502,,,105.5,7.35125,62.75704,,,
904,1502AL26,Lønsetbakken,,,,RENSEANLEGG,1502,,,105.5,7.36876,62.75904,,,
905,1503AL00,Grunden,,,,RENSEANLEGG,1503,,,110.15,7.74445,63.1121,,,
906,1503AL01,Dale,,,,RENSEANLEGG,1503,,,110.15,7.78069,63.12229,,,
907,1503AL03,Løkkemyra,,,,RENSEANLEGG,1503,,,110.15,7.77239,63.10741,,,
908,1503AL06,Hagelin,,,,RENSEANLEGG,1503,,,110.15,7.72595,63.12719,,,
909,1504AL03,RA5 Breivika,,,,RENSEANLEGG,1504,,,101.52,6.3385,62.4747,,,
910,1504AL13,RA15 Emblem 118,,,,RENSEANLEGG,1504,,,101.310,6.45477,62.43107,,,
911,1504AL14,RA16 Emblem 119,,,,RENSEANLEGG,1504,,,101.310,6.47427,62.42963,,,
912,1504AL15,Emblem 120,,,,RENSEANLEGG,1504,,,101.310,6.48007,62.42974,,,
913,1504AL17,RA4 Åse,,,,RENSEANLEGG,1504,,,101.52,6.31637,62.4617,,,
914,1504AL21,RA13 Årset Slamavskil,,,,RENSEANLEGG,1504,,,101.71,6.39249,62.50087,,,
915,1504AL22,RA12 Brendehaug Slama,,,,RENSEANLEGG,1504,,,101.71,6.43275,62.50701,,,
916,1504AL23,RA14 Nes Slamavskille,,,,RENSEANLEGG,1504,,,101.71,6.24962,62.51249,,,
917,1504AL43,Norvoy 50,,,,RENSEANLEGG,1504,,,101.52,6.16735,62.47851,,,
918,1504AL45,Norvoy 60,,,,RENSEANLEGG,1504,,,101.52,6.19354,62.46826,,,
919,1504AL47,RA3 Norvoy,,,,RENSEANLEGG,1504,,,101.52,6.24501,62.47827,,,
920,1504AL50,RA7 Hoffland,,,,RENSEANLEGG,1504,,,101.71,6.17981,62.49044,,,
921,1504AL52,RA9 Myklebust,,,,RENSEANLEGG,1504,,,101.71,6.29433,62.49091,,,
922,1504AL53,RA8 Ellingsoy Vest (S,,,,RENSEANLEGG,1504,,,101.71,6.25144,62.49277,,,
923,1504AL54,Sævollen 2,,,,RENSEANLEGG,1504,,,101.52,6.09389,62.45543,,,
924,1504AL61,Hessa 12,,,,RENSEANLEGG,1504,,,101.52,6.15726,62.46213,,,
925,1504AL66,RA2 Aspoy 25,,,,RENSEANLEGG,1504,,,101.52,6.13502,62.47156,,,
926,1504AL68,RA6 Flisnes,,,,RENSEANLEGG,1504,,,101.32,6.4049,62.42221,,,
927,1511AL00,Fiskå,,,,RENSEANLEGG,1511,,,092.52,5.54902,62.09972,,,
928,1511AL01,Låtra,,,,RENSEANLEGG,1511,,,092.510,5.56946,62.08855,,,
929,1511AL02,Korsnes,,,,RENSEANLEGG,1511,,,092.4,5.54211,62.07618,,,
930,1511AL03,Sylte,,,,RENSEANLEGG,1511,,,092.510,5.62123,62.05389,,,
931,1511AL05,Åheim,,,,RENSEANLEGG,1511,,,092.4,5.51344,62.04221,,,
932,1511AL06,Eidså,,,,RENSEANLEGG,1511,,,093.210,5.67115,62.12249,,,
933,1511AL07,Myklebust (Syvde Sent,,,,RENSEANLEGG,1511,,,093.2C,5.74277,62.06311,,,
934,1511AL10,Nordvika,,,,RENSEANLEGG,1511,,,093.32,5.74466,62.09909,,,
935,1511AL11,Rovde,,,,RENSEANLEGG,1511,,,093.410,5.75525,62.1793,,,
936,1514AL01,U13 Sætre Slamavskill,,,,RENSEANLEGG,1514,,,096.4120,5.64059,62.22508,,,
937,1514AL02,U10 Gjerdsvika,,,,RENSEANLEGG,1514,,,096.421,5.56101,62.26445,,,
938,1514AL03,U11 Haugsbygda,,,,RENSEANLEGG,1514,,,096.4120,5.58571,62.23362,,,
939,1514AL05,U14 Vågen,,,,RENSEANLEGG,1514,,,096.411,5.65119,62.21635,,,
940,1514AL06,U15 Vågen- Knotten,,,,RENSEANLEGG,1514,,,096.411,5.65119,62.21635,,,
941,1514AL08,U16 Larsnes,,,,RENSEANLEGG,1514,,,096.411,5.57148,62.20631,,,
942,1514AL09,U17 Breivikneset,,,,RENSEANLEGG,1514,,,096.411,5.58462,62.19226,,,
943,1514AL11,U3  Kvamsøy,,,,RENSEANLEGG,1514,,,096.5,5.41864,62.19704,,,
944,1514AL12,U1 Sandsøy,,,,RENSEANLEGG,1514,,,096.5,5.47982,62.24983,,,
945,1515AL00,"U124 Feirelia, Leikon",,,,RENSEANLEGG,1515,,,096.340,5.78712,62.24114,,,
946,1515AL01,"U111 Myrane, Remøy",,,,RENSEANLEGG,1515,,,096.6,5.67125,62.36598,,,
947,1515AL02,U102 Eggesbønes (Aust,,,,RENSEANLEGG,1515,,,096.6,5.63181,62.321,,,
948,1515AL03,12 Nerlandsøy/Kvalsun,,,,RENSEANLEGG,1515,,,096.6,5.595,62.33897,,,
949,1515AL04,Fosnavåg Rensedistrik,,,,RENSEANLEGG,1515,,,096.6,5.62747,62.34246,,,
950,1515AL05,U130 Mjølstadneset,,,,RENSEANLEGG,1515,,,096.6,5.67023,62.32283,,,
951,1515AL07,22 Moltustranda,,,,RENSEANLEGG,1515,,,096.4230,5.62509,62.29478,,,
952,1515AL10,U117 Trolldalen/ Stor,,,,RENSEANLEGG,1515,,,096.310,5.74394,62.30212,,,
953,1515AL11,U120 Dragsund,,,,RENSEANLEGG,1515,,,096.340,5.82909,62.28164,,,
954,1515AL12,U109 Kvalsvik,,,,RENSEANLEGG,1515,,,096.6,5.55682,62.36858,,,
955,1515AL13,U113 Frøystadvåg,,,,RENSEANLEGG,1515,,,096.6,5.69874,62.32711,,,
956,1515AL92,Flusund,,,,RENSEANLEGG,1515,,,096.6,5.67406,62.34309,,,
957,1515AL99,Leine,,,,RENSEANLEGG,1515,,,096.6,5.68698,62.34664,,,
958,1516AL00,Flo. U1A,,,,RENSEANLEGG,1516,,,096.220,5.84808,62.40426,,,
959,1516AL01,U15 Sundgotmarka,,,,RENSEANLEGG,1516,,,096.2120,5.82631,62.30808,,,
960,1516AL02,U2 Ulstein,,,,RENSEANLEGG,1516,,,096.220,5.81438,62.36598,,,
961,1516AL04,U4 Halseneset,,,,RENSEANLEGG,1516,,,096.2120,5.82393,62.3489,,,
962,1516AL14,R4 Strandabø ( U12 Ha,,,,RENSEANLEGG,1516,,,096.2120,5.86295,62.32694,,,
963,1516AL16,R5 Garshol ( U14 Hasu,,,,RENSEANLEGG,1516,,,096.2120,5.8485,62.30814,,,
964,1516AL20,U17 Vågevågen,,,,RENSEANLEGG,1516,,,096.2120,5.82596,62.32963,,,
965,1516AL21,U19 Hellestøa,,,,RENSEANLEGG,1516,,,096.2120,5.80578,62.32872,,,
966,1516AL22,U21 Ytre Haddal,,,,RENSEANLEGG,1516,,,096.2120,5.86575,62.28158,,,
967,1516AL23,U22 Indre Haddal,,,,RENSEANLEGG,1516,,,096.211,5.87015,62.27629,,,
968,1516AL24,U25 Havåg ( Eiksund ),,,,RENSEANLEGG,1516,,,096.120,5.87862,62.25042,,,
969,1517AL01,Hareid 1,,,,RENSEANLEGG,1517,,,096.112,6.03573,62.36707,,,
970,1517AL02,Hareid 2,,,,RENSEANLEGG,1517,,,096.112,6.03396,62.37512,,,
971,1517AL03,Brandal,,,,RENSEANLEGG,1517,,,096.11Z,6.01119,62.39978,,,
972,1517AL04,Hjørungavåg,,,,RENSEANLEGG,1517,,,096.120,6.08226,62.35593,,,
973,1519AL01,B2 Lauvstad,,,,RENSEANLEGG,1519,,,094.110,5.94144,62.16289,,,
974,1519AL02,E1 Dalsbygd,,,,RENSEANLEGG,1519,,,094.212,5.9228,62.06276,,,
975,1519AL03,F2 Folkestad Fergekai,,,,RENSEANLEGG,1519,,,094.3Z,6.03218,62.11906,,,
976,1519AL04,J2 Fyrde,,,,RENSEANLEGG,1519,,,094.510,6.31328,62.06375,,,
977,1519AL06,M4 Volda sentrum,,,,RENSEANLEGG,1519,,,094.620,6.06229,62.14486,,,
978,1519AL07,N3 Morkabygda,,,,RENSEANLEGG,1519,,,094.620,6.02988,62.16213,,,
979,1519AL11,C1 Dravlaus ytre,,,,RENSEANLEGG,1519,,,094.120,5.94341,62.12431,,,
980,1519AL13,C4 Dravlausbygd,,,,RENSEANLEGG,1519,,,094.120,5.94076,62.11257,,,
981,1519AL16,D3 Steinsvik,,,,RENSEANLEGG,1519,,,094.212,5.85414,62.00461,,,
982,1519AL20,O1 Lid indre,,,,RENSEANLEGG,1519,,,094.620,5.96195,62.20736,,,
983,1519AL21,O2 Lid ytre,,,,RENSEANLEGG,1519,,,094.620,5.94578,62.21509,,,
984,1519AL50,M1 Velsvik Lager,,,,RENSEANLEGG,1519,,,094.61,6.07452,62.14047,,,
985,1519AL51,N4 Utslepp ved Mork s,,,,RENSEANLEGG,1519,,,311.J51,12.01913,62.165,,,
986,1520AL00,Sæbø Reinseanlegg,,,,RENSEANLEGG,1520,,,097.112,6.47739,62.20831,,,
987,1520AL01,A2. Barstadvik,,,,RENSEANLEGG,1520,,,095.410,6.26544,62.36101,,,
988,1520AL02,B1. N. Vartdal,,,,RENSEANLEGG,1520,,,095.410,6.13379,62.32242,,,
989,1520AL04,B3. N. Vartdal,,,,RENSEANLEGG,1520,,,095.410,6.15272,62.3264,,,
990,1520AL05,B4. N. Vartdal,,,,RENSEANLEGG,1520,,,095.41Z,6.14317,62.32531,,,
991,1520AL07,Vartdal Reinseanlegg,,,,RENSEANLEGG,1520,,,095.32,6.08366,62.30161,,,
992,1520AL08,D1. Liadalsbygda,,,,RENSEANLEGG,1520,,,095.210,5.99722,62.23958,,,
993,1520AL10,D3. Liadalsbygda,,,,RENSEANLEGG,1520,,,095.210,6.00334,62.23612,,,
994,1520AL12,HR-1 Vikøyrane,,,,RENSEANLEGG,1520,,,095.210,6.12349,62.1978,,,
995,1520AL25,IR6. Sæboneset,,,,RENSEANLEGG,1520,,,097.112,6.49201,62.21755,,,
996,1520AL26,Slamskiljar Sætre,,,,RENSEANLEGG,1520,,,095.210,6.07931,62.2072,,,
997,1523AL01,Sjøholt Hovedutslepp,,,,RENSEANLEGG,1523,,,101.12,6.81157,62.48026,,,
998,1523AL10,Skarbø,,,,RENSEANLEGG,1523,,,100.32,6.84588,62.46193,,,
999,1525AL00,U11 Ødegård,,,,RENSEANLEGG,1525,,,098.31,6.93733,62.31696,,,
1000,1525AL01,U121 Bøen 1,,,,RENSEANLEGG,1525,,,098.31,6.9413,62.31522,,,
1001,1525AL11,U22 Lied,,,,RENSEANLEGG,1525,,,100.21,7.05728,62.3124,,,
1002,1525AL12,U23 Overå,,,,RENSEANLEGG,1525,,,100.21,7.08677,62.30384,,,
1003,1525AL13,U31 Hellesylt N,,,,RENSEANLEGG,1525,,,098.50,6.87053,62.08786,,,
1004,1525AL14,U32 Hellesylt S,,,,RENSEANLEGG,1525,,,098.61,6.87263,62.0852,,,
1005,1525AL16,U19 Opshaugvik,,,,RENSEANLEGG,1525,,,098.320,6.98769,62.28537,,,
1006,1525AL17,U421 Homlong S,,,,RENSEANLEGG,1525,,,098.71,7.18161,62.10668,,,
1007,1525AL18,U42 Homlong,,,,RENSEANLEGG,1525,,,098.71,7.18156,62.10758,,,
1008,1525AL21,U432 Grande,,,,RENSEANLEGG,1525,,,098.8,7.18299,62.11568,,,
1009,1525AL22,U433 Grande,,,,RENSEANLEGG,1525,,,098.8,7.18296,62.11613,,,
1010,1525AL23,U434 Grande N,,,,RENSEANLEGG,1525,,,098.8,7.18294,62.11657,,,
1011,1526AL07,Stordal Renseanlegg,,,,RENSEANLEGG,1526,,,100.22,6.98149,62.37777,,,
1012,1526AL10,Dyrkorn,,,,RENSEANLEGG,1526,,,100.310,6.94764,62.42037,,,
1013,1528AL02,U61 Tusvik,,,,RENSEANLEGG,1528,,,097.610,6.46903,62.3999,,,
1014,1528AL04,U11 Aursnes,,,,RENSEANLEGG,1528,,,097.8,6.54762,62.40939,,,
1015,1528AL06,U23 Sætre,,,,RENSEANLEGG,1528,,,097.620,6.55419,62.37628,,,
1016,1528AL07,U231 Helleneset,,,,RENSEANLEGG,1528,,,097.620,6.55568,62.3817,,,
1017,1528AL08,U176 Schmidtdalen,,,,RENSEANLEGG,1528,,,097.7210,6.57372,62.37393,,,
1018,1528AL09,U175 Blindheim,,,,RENSEANLEGG,1528,,,097.7210,6.56957,62.37745,,,
1019,1528AL12,U31 Tynesstranda,,,,RENSEANLEGG,1528,,,097.7210,6.57852,62.36234,,,
1020,1528AL13,U12 Ullavika,,,,RENSEANLEGG,1528,,,097.722,6.58128,62.40011,,,
1021,1528AL14,U32 Øygardsvika,,,,RENSEANLEGG,1528,,,097.7210,6.58697,62.35351,,,
1022,1528AL20,U91 Ramstaddal,,,,RENSEANLEGG,1528,,,098.1A0,6.78808,62.4305,,,
1023,1528AL23,U141 Sykkylven Ungdom,,,,RENSEANLEGG,1528,,,097.7210,6.57978,62.39469,,,
1024,1528AL30,U172 Vikedalen,,,,RENSEANLEGG,1528,,,097.721Z,6.57039,62.37926,,,
1025,1529AL00,U201 Håhjem (Storfjor,,,,RENSEANLEGG,1529,,,101.22,6.69451,62.48824,,,
1026,1529AL01,U101 Glomset,,,,RENSEANLEGG,1529,,,101.310,6.61717,62.46,,,
1027,1529AL11,U701 Stige,,,,RENSEANLEGG,1529,,,101.6B,6.6502,62.5333,,,
1028,1529AL12,U405 Juvågen,,,,RENSEANLEGG,1529,,,101.52,6.50907,62.50031,,,
1029,1529AL14,U601 Stette,,,,RENSEANLEGG,1529,,,101.61,6.61021,62.52274,,,
1030,1531AL00,RA1-Geilneset,,,,RENSEANLEGG,1531,,,101.41,6.18269,62.4393,,,
1031,1531AL01,RA2 Djupvika,,,,RENSEANLEGG,1531,,,101.41,6.25807,62.4417,,,
1032,1532AL00,VI 1. Roald Nord,,,,RENSEANLEGG,1532,,,101.74,6.12494,62.58632,,,
1033,1532AL02,VI 4 - Vigra kringkas,,,,RENSEANLEGG,1532,,,101.74,6.0503,62.5394,,,
1034,1532AL03,VA 1 - Skjong,,,,RENSEANLEGG,1532,,,101.73,6.10042,62.50012,,,
1035,1532AL04,VA 2 - Midtre Skjong,,,,RENSEANLEGG,1532,,,101.73,6.10723,62.49793,,,
1036,1532AL05,VA 3 - Valderhaugstra,,,,RENSEANLEGG,1532,,,101.73,6.12154,62.49463,,,
1037,1532AL06,VA 4 - Valderhaug (v/,,,,RENSEANLEGG,1532,,,101.73,6.13442,62.49804,,,
1038,1532AL07,VA 5 - Valderhaug (v/,,,,RENSEANLEGG,1532,,,101.73,6.13583,62.50355,,,
1039,1532AL08,VA 6 - Nordstrand Sor,,,,RENSEANLEGG,1532,,,101.73,6.13334,62.50925,,,
1040,1532AL09,VA 7 - Nordstrand (v/,,,,RENSEANLEGG,1532,,,101.73,6.13492,62.51305,,,
1041,1532AL11,DYB - GO 2,,,,RENSEANLEGG,1532,,,101.72,5.98589,62.46463,,,
1042,1532AL12,Ålesund Lufthamn - VI,,,,RENSEANLEGG,1532,,,101.74,6.12749,62.55988,,,
1043,1532AL13,VI7 Blindheimsvik,,,,RENSEANLEGG,1532,,,101.74,6.0795,62.55304,,,
1044,1532AL14,VA 8 Nordstrand (v/ V,,,,RENSEANLEGG,1532,,,101.73,6.13649,62.51695,,,
1045,1532AL15,VA 9 - Oksnes,,,,RENSEANLEGG,1532,,,101.73,6.13819,62.51941,,,
1046,1532AL16,VA 10 - Gjosundsætra,,,,RENSEANLEGG,1532,,,101.73,6.12312,62.52862,,,
1047,1532AL17,GI 1. Giskegjerde,,,,RENSEANLEGG,1532,,,101.73,6.05943,62.50995,,,
1048,1532AL18,GI 2 - Giske,,,,RENSEANLEGG,1532,,,101.73,6.03894,62.50098,,,
1049,1532AL19,GO 1 - Støbakk,,,,RENSEANLEGG,1532,,,101.72,6.04161,62.47409,,,
1050,1532AL22,GO 3 - Valkve,,,,RENSEANLEGG,1532,,,101.72,6.04403,62.48107,,,
1051,1534AL00,U1 Brattvåg,,,,RENSEANLEGG,1534,,,102.1220,6.45954,62.58025,,,
1052,1534AL01,U2 Brattvåg,,,,RENSEANLEGG,1534,,,102.1220,6.45519,62.58556,,,
1053,1534AL02,U3 Brattvåg,,,,RENSEANLEGG,1534,,,102.1220,6.45683,62.58918,,,
1054,1534AL03,U4 Brattvåg,,,,RENSEANLEGG,1534,,,102.1220,6.45656,62.59232,,,
1055,1534AL04,U5 Brattvåg,,,,RENSEANLEGG,1534,,,102.1220,6.4582,62.59594,,,
1056,1534AL05,U6 Brattvåg,,,,RENSEANLEGG,1534,,,102.1220,6.45147,62.59492,,,
1057,1534AL06,U7 Brattvåg,,,,RENSEANLEGG,1534,,,102.1220,6.44874,62.59262,,,
1058,1534AL07,U8 Brattvåg,,,,RENSEANLEGG,1534,,,102.1220,6.44777,62.5926,,,
1059,1534AL08,U9 Brattvåg,,,,RENSEANLEGG,1534,,,102.1220,6.44863,62.59397,,,
1060,1534AL09,U10 Brattvåg,,,,RENSEANLEGG,1534,,,102.1220,6.44859,62.59442,,,
1061,1534AL10,U65 Lepsøy,,,,RENSEANLEGG,1534,,,101.91,6.21917,62.60979,,,
1062,1534AL11,U11 Brattvåg,,,,RENSEANLEGG,1534,,,102.1220,6.44847,62.59576,,,
1063,1534AL12,U12 Brattvåg,,,,RENSEANLEGG,1534,,,102.1220,6.44839,62.59666,,,
1064,1534AL13,U13 Brattvåg,,,,RENSEANLEGG,1534,,,102.1220,6.44836,62.59711,,,
1065,1534AL14,U14 Brattvåg,,,,RENSEANLEGG,1534,,,102.1220,6.44925,62.59802,,,
1066,1534AL15,U15 Brattvåg,,,,RENSEANLEGG,1534,,,102.1220,6.4482,62.5989,,,
1067,1534AL18,U18 Brattvåg,,,,RENSEANLEGG,1534,,,102.1220,6.44879,62.6034,,,
1068,1534AL19,U19 Brattvåg,,,,RENSEANLEGG,1534,,,102.1220,6.44961,62.60521,,,
1069,1534AL20,U20 Brattvåg,,,,RENSEANLEGG,1534,,,102.1220,6.44953,62.60611,,,
1070,1534AL21,U21 Brattvåg,,,,RENSEANLEGG,1534,,,102.121,6.4451,62.61231,,,
1071,1534AL22,U22 Helland,,,,RENSEANLEGG,1534,,,102.1220,6.46892,62.60736,,,
1072,1534AL23,U25 Hildre,,,,RENSEANLEGG,1534,,,102.112,6.41209,62.61081,,,
1073,1534AL24,U27 Hildre,,,,RENSEANLEGG,1534,,,102.112,6.35159,62.61147,,,
1074,1534AL25,U28 Hildre,,,,RENSEANLEGG,1534,,,101.830,6.32443,62.61005,,,
1075,1534AL26,U30 Søvik,,,,RENSEANLEGG,1534,,,101.830,6.27612,62.56286,,,
1076,1534AL27,U33 Søvik,,,,RENSEANLEGG,1534,,,101.830,6.27067,62.54794,,,
1077,1534AL28,U34 Søvik,,,,RENSEANLEGG,1534,,,101.830,6.27358,62.54799,,,
1078,1534AL29,U35 Søvik,,,,RENSEANLEGG,1534,,,101.830,6.25274,62.55252,,,
1079,1534AL30,U36 Store Kalvøy,,,,RENSEANLEGG,1534,,,101.830,6.20552,62.52688,,,
1080,1534AL31,U37 Store Kalvøy,,,,RENSEANLEGG,1534,,,101.830,6.2092,62.5292,,,
1081,1534AL32,U38 Grytestranda,,,,RENSEANLEGG,1534,,,101.82,6.27518,62.53051,,,
1082,1534AL33,U46 Grytestranda,,,,RENSEANLEGG,1534,,,101.82,6.47867,62.53838,,,
1083,1534AL34,U47 Grytestranda,,,,RENSEANLEGG,1534,,,101.82,6.50959,62.54074,,,
1084,1534AL35,U48 Tennfjord,,,,RENSEANLEGG,1534,,,101.81,6.56964,62.54359,,,
1085,1534AL36,U49 Tennfjord,,,,RENSEANLEGG,1534,,,101.81,6.57184,62.54049,,,
1086,1534AL37,U50 Tennfjord,,,,RENSEANLEGG,1534,,,101.81,6.57008,62.53821,,,
1087,1534AL38,U51 Vatne,,,,RENSEANLEGG,1534,,,102.22,6.61194,62.56184,,,
1088,1534AL39,U52 Vatne,,,,RENSEANLEGG,1534,,,102.22,6.61475,62.56323,,,
1089,1534AL40,U53 Vatne,,,,RENSEANLEGG,1534,,,102.22,6.63101,62.60347,,,
1090,1534AL41,U54 Fjørtoft,,,,RENSEANLEGG,1534,,,101.94,6.41377,62.71457,,,
1091,1534AL42,U57 Skuløy,,,,RENSEANLEGG,1534,,,101.93,6.26098,62.67439,,,
1092,1534AL44,U60 Haramsøy,,,,RENSEANLEGG,1534,,,101.92,6.27045,62.64583,,,
1093,1534AL45,U61 Haramsøy,,,,RENSEANLEGG,1534,,,101.92,6.27683,62.64012,,,
1094,1534AL46,U62 Haramsøy,,,,RENSEANLEGG,1534,,,101.92,6.2772,62.63608,,,
1095,1534AL47,U64 Lepsøy,,,,RENSEANLEGG,1534,,,101.91,6.22434,62.61708,,,
1096,1534AL48,U66 Lepsøy,,,,RENSEANLEGG,1534,,,101.91,6.1973,62.60396,,,
1097,1534AL50,U24 Synnaland,,,,RENSEANLEGG,1534,,,102.1220,6.44859,62.59442,,,
1098,1534AL51,U43B Grytestranda,,,,RENSEANLEGG,1534,,,101.82,6.38543,62.53711,,,
1099,1534AL52,U44 Grytestranda,,,,RENSEANLEGG,1534,,,101.82,6.43432,62.53398,,,
1100,1534AL53,U58 Haramsøy,,,,RENSEANLEGG,1534,,,101.92,6.25822,62.65143,,,
1101,1534AL54,U68 Skuløy,,,,RENSEANLEGG,1534,,,101.93,6.28659,62.66141,,,
1102,1535AL00,Vestnesbukta RA,,,,RENSEANLEGG,1535,,,102.51,7.07905,62.63595,,,
1103,1535AL02,Nerås,,,,RENSEANLEGG,1535,,,102.440,6.90926,62.6371,,,
1104,1246AL22,Areknappen,,,,RENSEANLEGG,1246,,,057.1,5.05061,60.39008,,,
1105,1246AL26,Våge RA,,,,RENSEANLEGG,1246,,,057.1,5.12133,60.38732,,,
1106,1247AL00,Fromreide,,,,RENSEANLEGG,1247,,,059.4,5.06807,60.50117,,,
1107,1247AL01,Skråmestø,,,,RENSEANLEGG,1247,,,059.4,4.99689,60.53141,,,
1108,1247AL02,Hauglandshella,,,,RENSEANLEGG,1247,,,059.4,5.15398,60.44526,,,
1109,1247AL03,Ramsøy,,,,RENSEANLEGG,1247,,,059.4,5.05215,60.43732,,,
1110,1247AL04,Hanøytangen,,,,RENSEANLEGG,1247,,,059.4,5.09359,60.44214,,,
1111,1247AL05,Strand,,,,RENSEANLEGG,1247,,,059.32,5.23449,60.40934,,,
1112,1247AL06,Marikovneset,,,,RENSEANLEGG,1247,,,059.32,5.18382,60.3963,,,
1113,1247AL07,Marikoven,,,,RENSEANLEGG,1247,,,059.32,5.17642,60.39377,,,
1114,1247AL08,Træet,,,,RENSEANLEGG,1247,,,059.4,5.17033,60.40688,,,
1115,1247AL13,"Rolf Olsen, Skarholme",,,,RENSEANLEGG,1247,,,059.32,5.19469,60.40059,,,
1116,1247AL14,Bakervågen I,,,,RENSEANLEGG,1247,,,059.32,5.23613,60.43036,,,
1117,1247AL15,Bakervågen II,,,,RENSEANLEGG,1247,,,059.32,5.23364,60.4286,,,
1118,1247AL17,"Ekrene, Florvåg",,,,RENSEANLEGG,1247,,,059.32,5.24199,60.41408,,,
1119,1247AL19,Askehavn,,,,RENSEANLEGG,1247,,,059.31,5.2172,60.48049,,,
1120,1247AL20,Juvik,,,,RENSEANLEGG,1247,,,059.4,5.17864,60.43438,,,
1121,1247AL21,Kyrkjevika off.,,,,RENSEANLEGG,1247,,,059.31,5.16284,60.50125,,,
1122,1247AL22,Pøyla,,,,RENSEANLEGG,1247,,,059.4,5.11078,60.46422,,,
1123,1247AL27,Drageide (Florvåg),,,,RENSEANLEGG,1247,,,059.32,5.2442,60.42325,,,
1124,1247AL28,Kyrkjevika (p),,,,RENSEANLEGG,1247,,,059.31,5.20739,60.48587,,,
1125,1247AL30,Vestlandske Blindefor,,,,RENSEANLEGG,1247,,,059.31,5.18324,60.49824,,,
1126,1247AL31,S. Naustdal (Lille Br,,,,RENSEANLEGG,1247,,,059.31,5.1882,60.49479,,,
1127,1247AL32,Skogliheimen I,,,,RENSEANLEGG,1247,,,059.31,5.22337,60.46691,,,
1128,1247AL33,Skogliheimen 2,,,,RENSEANLEGG,1247,,,059.31,5.22431,60.46556,,,
1129,1247AL34,Kleppestø,,,,RENSEANLEGG,1247,,,059.32,5.22914,60.40717,,,
1130,1247AL36,"Sveabrotet, Strussham",,,,RENSEANLEGG,1247,,,059.32,5.19344,60.4048,,,
1131,1247AL37,"Skiftesvik, Strussham",,,,RENSEANLEGG,1247,,,059.32,5.17988,60.40512,,,
1132,1247AL40,Alvheimfeltet,,,,RENSEANLEGG,1247,,,059.32,5.23487,60.4354,,,
1133,1247AL43,Kråvik,,,,RENSEANLEGG,1247,,,059.4,5.16925,60.44544,,,
1134,1247AL44,Olaviken,,,,RENSEANLEGG,1247,,,059.32,5.22676,60.45764,,,
1135,1247AL45,Signalneset,,,,RENSEANLEGG,1247,,,059.31,5.15694,60.50437,,,
1136,1247AL46,Skansen,,,,RENSEANLEGG,1247,,,059.31,4.97175,60.55944,,,
1137,1247AL47,Skogvik,,,,RENSEANLEGG,1247,,,059.32,5.22015,60.45313,,,
1138,1247AL48,Treet,,,,RENSEANLEGG,1247,,,059.31,5.07792,60.50874,,,
1139,1247AL49,Tveitevåg,,,,RENSEANLEGG,1247,,,059.4,5.13269,60.44545,,,
1140,1247AL50,Ytre Florvågøy,,,,RENSEANLEGG,1247,,,059.32,5.25154,60.40976,,,
1141,1247AL51,Ådlandsvik,,,,RENSEANLEGG,1247,,,059.31,5.02686,60.5324,,,
1142,1247AL53,Lavik private slamavs,,,,RENSEANLEGG,1247,,,059.31,5.20173,60.48614,,,
1143,1247AL54,Eide,,,,RENSEANLEGG,1247,,,059.4,5.14517,60.42263,,,
1144,1247AL55,Fauskanger Skole,,,,RENSEANLEGG,1247,,,059.31,5.03044,60.52441,,,
1145,1247AL56,Fauskangervågen,,,,RENSEANLEGG,1247,,,059.4,5.03666,60.50779,,,
1146,1247AL57,Gullskjærvik,,,,RENSEANLEGG,1247,,,059.32,5.24924,60.41615,,,
1147,1247AL58,Hamyrsvika,,,,RENSEANLEGG,1247,,,059.4,5.09738,60.46949,,,
1148,1247AL59,Hestvika,,,,RENSEANLEGG,1247,,,059.4,5.11525,60.46867,,,
1149,1247AL60,Hop,,,,RENSEANLEGG,1247,,,059.31,5.22124,60.4729,,,
1150,1247AL61,Kinna,,,,RENSEANLEGG,1247,,,059.4,5.0893,60.46584,,,
1151,1247AL62,Kollevåg,,,,RENSEANLEGG,1247,,,059.4,5.12462,60.45122,,,
1152,1247AL63,Lille Fauskanger,,,,RENSEANLEGG,1247,,,059.31,5.02966,60.51711,,,
1153,1247AL64,Marikoven Øst,,,,RENSEANLEGG,1247,,,059.32,5.17612,60.39457,,,
1154,1247AL65,Marikovfjæra,,,,RENSEANLEGG,1247,,,059.32,5.22521,60.44732,,,
1155,1247AL66,Merkesvik,,,,RENSEANLEGG,1247,,,059.4,4.98211,60.54427,,,
1156,1247AL67,Pollelven,,,,RENSEANLEGG,1247,,,059.4,5.17713,60.44141,,,
1157,1247AL69,Sikksvika,,,,RENSEANLEGG,1247,,,059.31,4.98541,60.55237,,,
1158,1247AL70,Store Breivik,,,,RENSEANLEGG,1247,,,059.4,5.01734,60.51363,,,
1159,1247AL71,Strusshamn,,,,RENSEANLEGG,1247,,,059.32,5.19342,60.40478,,,
1160,1247AL73,Strømsnesbukten,,,,RENSEANLEGG,1247,,,059.31,5.2282,60.46534,,,
1161,1247AL75,Thorsenfeltet,,,,RENSEANLEGG,1247,,,059.32,5.23613,60.43036,,,
1162,1247AL76,Thumyrfeltet,,,,RENSEANLEGG,1247,,,059.32,5.23593,60.46046,,,
1163,1247AL77,Tronviken,,,,RENSEANLEGG,1247,,,059.31,5.02997,60.53096,,,
1164,1247AL80,Marikoven sør,,,,RENSEANLEGG,1247,,,059.32,5.17484,60.39389,,,
1165,1247AL83,Follesevågen,,,,RENSEANLEGG,1247,,,059.4,5.15447,60.41181,,,
1166,1247AL84,"Haugadalen, Follese",,,,RENSEANLEGG,1247,,,059.4,5.15456,60.41409,,,
1167,1247AL85,Herdla Kirke,,,,RENSEANLEGG,1247,,,059.4,4.94754,60.56857,,,
1168,1247AL92,Skogvik II,,,,RENSEANLEGG,1247,,,059.32,5.2228,60.45025,,,
1169,1247AL93,Tømmervik (p),,,,RENSEANLEGG,1247,,,059.4,5.16181,60.44414,,,
1170,1247AL95,Søre Østerdalen,,,,RENSEANLEGG,1247,,,059.32,5.23321,60.43354,,,
1171,1247AL96,Hopshamn,,,,RENSEANLEGG,1247,,,059.31,5.21746,60.47279,,,
1172,1247AL98,Lavik,,,,RENSEANLEGG,1247,,,059.4,5.18099,60.4359,,,
1173,1251AL02,Stanghelle,,,,RENSEANLEGG,1251,,,061.50,5.72846,60.54828,,,
1174,1251AL04,Stamnes,,,,RENSEANLEGG,1251,,,062.4,5.74783,60.66422,,,
1175,1251AL05,Otterstadneset,,,,RENSEANLEGG,1251,,,063.11,5.74167,60.67081,,,
1176,1251AL06,Eidslandet,,,,RENSEANLEGG,1251,,,063.2,5.79755,60.73506,,,
1177,1251AL07,Vaksdal,,,,RENSEANLEGG,1251,,,061.42,5.73556,60.47791,,,
1178,1252AL00,Øvre Helland,,,,RENSEANLEGG,1252,,,064.A7,5.97179,60.85278,,,
1179,1253AL00,Hanstveit,,,,RENSEANLEGG,1253,,,060.52A,5.51536,60.59544,,,
1180,1253AL01,Rauberg Industriområd,,,,RENSEANLEGG,1253,,,060.61,5.56477,60.612,,,
1181,1253AL02,Bruvik,,,,RENSEANLEGG,1253,,,060.2,5.68071,60.48014,,,
1182,1253AL03,Vatle,,,,RENSEANLEGG,1253,,,060.3,5.46339,60.46914,,,
1183,1253AL04,Lonevåg,,,,RENSEANLEGG,1253,,,060.40,5.49278,60.52906,,,
1184,1253AL12,Hamre v/Skole,,,,RENSEANLEGG,1253,,,060.40,5.34925,60.54515,,,
1185,1253AL13,Valestrand,,,,RENSEANLEGG,1253,,,060.3,5.42515,60.50227,,,
1186,1253AL16,Hosanger / Skålevika,,,,RENSEANLEGG,1253,,,060.51,5.47703,60.57825,,,
1187,1253AL17,Klokkarneset Hamre,,,,RENSEANLEGG,1253,,,060.40,5.34571,60.54415,,,
1188,1253AL19,Stormyra,,,,RENSEANLEGG,1253,,,060.61,5.57668,60.62039,,,
1189,1256AL00,Frekhaugmarka,,,,RENSEANLEGG,1256,,,059.21,5.22247,60.50565,,,
1190,1256AL04,Flatøy,,,,RENSEANLEGG,1256,,,059.1,5.26105,60.53461,,,
1191,1256AL05,Vikebø - Ryland,,,,RENSEANLEGG,1256,,,059.22,5.05135,60.5636,,,
1192,1256AL06,Moldekleivmarka,,,,RENSEANLEGG,1256,,,059.1,5.21584,60.54681,,,
1193,1256AL07,Holmemarka,,,,RENSEANLEGG,1256,,,059.21,5.17259,60.5267,,,
1194,1256AL08,Orrhøien Bustadfelt I,,,,RENSEANLEGG,1256,,,059.21,5.13591,60.52833,,,
1195,1256AL09,Frekhaugskogen,,,,RENSEANLEGG,1256,,,059.1,5.24847,60.51717,,,
1196,1256AL11,Øvrebøen,,,,RENSEANLEGG,1256,,,059.1,5.24975,60.52979,,,
1197,1256AL12,Orrhøien Bustadfelt I,,,,RENSEANLEGG,1256,,,059.21,5.13591,60.52833,,,
1198,1256AL13,Beitingen,,,,RENSEANLEGG,1256,,,059.21,5.05226,60.54116,,,
1199,1256AL14,Dalemarka,,,,RENSEANLEGG,1256,,,059.21,5.19715,60.51167,,,
1200,1256AL15,"Mongsdalen, Hjertås",,,,RENSEANLEGG,1256,,,059.21,5.13839,60.52794,,,
1201,1256AL17,"Mjukebakkane, Hjertås",,,,RENSEANLEGG,1256,,,059.21,5.14122,60.52821,,,
1202,1259AL01,Rongesundet,,,,RENSEANLEGG,1259,,,058.3,4.92593,60.50813,,,
1203,1259AL02,Knappen I,,,,RENSEANLEGG,1259,,,058.3,4.96011,60.46062,,,
1204,1259AL03,Norske Shell,,,,RENSEANLEGG,1259,,,058.2,4.82765,60.55632,,,
1205,1259AL04,Vik,,,,RENSEANLEGG,1259,,,058.3,4.96012,60.47008,,,
1206,1259AL11,Tjeldstøsundet,,,,RENSEANLEGG,1259,,,058.1,4.84221,60.5851,,,
1207,1259AL13,Ovågen,,,,RENSEANLEGG,1259,,,058.2,4.86305,60.56507,,,
1208,1259AL19,Torsteinvik II,,,,RENSEANLEGG,1259,,,058.3,4.94128,60.48747,,,
1209,1260AL00,Bøvågen,,,,RENSEANLEGG,1260,,,066.50,4.92445,60.70092,,,
1210,1260AL01,Manger,,,,RENSEANLEGG,1260,,,066.4,5.0313,60.63762,,,
1211,1260AL02,Austmarka 1,,,,RENSEANLEGG,1260,,,066.3,5.18524,60.62054,,,
1212,1260AL10,Austmarka Nord,,,,RENSEANLEGG,1260,,,066.3,5.17462,60.61754,,,
1213,1260AL16,Mangerspollen,,,,RENSEANLEGG,1260,,,066.4,5.03816,60.64142,,,
1214,1263AL05,Myking,,,,RENSEANLEGG,1263,,,065.5,5.33253,60.70063,,,
1215,1263AL06,Hjelmås,,,,RENSEANLEGG,1263,,,064.72,5.36812,60.58836,,,
1216,1263AL07,Knarvik Klubbstøa,,,,RENSEANLEGG,1263,,,065.10,5.27527,60.54579,,,
1217,1263AL09,Myksvoll,,,,RENSEANLEGG,1263,,,065.210,5.18584,60.66191,,,
1218,1263AL10,Ostereidet,,,,RENSEANLEGG,1263,,,064.6,5.48308,60.62335,,,
1219,1263AL11,Kløve,,,,RENSEANLEGG,1263,,,065.5,5.35239,60.66298,,,
1220,1263AL12,Alverstraumen,,,,RENSEANLEGG,1263,,,066.3,5.21763,60.57832,,,
1221,1263AL13,Fanebust,,,,RENSEANLEGG,1263,,,065.4,5.18188,60.75708,,,
1222,1263AL14,Risa,,,,RENSEANLEGG,1263,,,065.3,5.05673,60.75883,,,
1223,1263AL15,Leknes,,,,RENSEANLEGG,1263,,,064.72,5.38151,60.5667,,,
1224,1263AL16,Eknes,,,,RENSEANLEGG,1263,,,064.71,5.44705,60.60172,,,
1225,1263AL30,Hilland Vest,,,,RENSEANLEGG,1263,,,066.3,5.22708,60.56619,,,
1226,1263AL31,Ikenberget,,,,RENSEANLEGG,1263,,,065.10,5.24961,60.55775,,,
1227,1263AL32,Knarvik 2 (Solbakken),,,,RENSEANLEGG,1263,,,064.73,5.29066,60.54209,,,
1228,1263AL34,Knarvik 5 (Isdal),,,,RENSEANLEGG,1263,,,065.10,5.27192,60.55362,,,
1229,1263AL36,Storneset/Leknes,,,,RENSEANLEGG,1263,,,064.72,5.38478,60.57016,,,
1230,1264AL12,Årås,,,,RENSEANLEGG,1264,,,066.2,4.92908,60.78018,,,
1231,1265AL00,Flyndrevågen,,,,RENSEANLEGG,1265,,,066.1,4.73633,60.77776,,,
1232,1265AL01,Slaren,,,,RENSEANLEGG,1265,,,066.1,4.71889,60.78439,,,
1233,1266AL00,Haugsvær,,,,RENSEANLEGG,1266,,,067.40,5.51684,60.90328,,,
1234,1266AL01,Ytre Haugsdal II,,,,RENSEANLEGG,1266,,,067.62,5.15174,60.83981,,,
1235,1266AL04,Hosteland,,,,RENSEANLEGG,1266,,,067.61,5.28343,60.83185,,,
1236,1266AL06,Kommunehuset,,,,RENSEANLEGG,1266,,,067.10,5.30011,60.79905,,,
1237,1266AL07,Stykket,,,,RENSEANLEGG,1266,,,067.10,5.29625,60.7967,,,
1238,1266AL08,Sør-Kvingo,,,,RENSEANLEGG,1266,,,065.71,5.38741,60.74257,,,
1239,1401AL00,Fjord Base AS,,,,RENSEANLEGG,1401,,,085.71,5.07495,61.61243,,,
1240,1401AL01,Storåsen Sør (Rd 9),,,,RENSEANLEGG,1401,,,085.72,5.03419,61.58428,,,
1241,1401AL02,Nesjane,,,,RENSEANLEGG,1401,,,085.34,5.42755,61.59113,,,
1242,1401AL05,Kvalvågen (Rd 4),,,,RENSEANLEGG,1401,,,085.72,5.01714,61.59951,,,
1243,1401AL06,Brandsøyåsen Nord-Ves,,,,RENSEANLEGG,1401,,,085.71,5.0705,61.60286,,,
1244,1401AL10,Ragnarrud/Hovland,,,,RENSEANLEGG,1401,,,085.71,5.05828,61.60251,,,
1245,1401AL11,Kleven Florø As,,,,RENSEANLEGG,1401,,,085.72,5.05345,61.60335,,,
1246,1401AL15,Stranda (RD 3),,,,RENSEANLEGG,1401,,,085.72,5.02278,61.59967,,,
1247,1401AL17,Nordnes,,,,RENSEANLEGG,1401,,,085.72,5.00868,61.59926,,,
1248,1401AL18,Breivika,,,,RENSEANLEGG,1401,,,085.72,5.00233,61.59728,,,
1249,1401AL19,Havreneset Sør (RD 6),,,,RENSEANLEGG,1401,,,085.72,5.00003,61.59317,,,
1250,1401AL21,Hovland,,,,RENSEANLEGG,1401,,,085.33,5.455,61.59256,,,
1251,1401AL25,Gunnhildvågen (RD 8),,,,RENSEANLEGG,1401,,,085.72,5.00014,61.58508,,,
1252,1401AL27,Brendøyvegen,,,,RENSEANLEGG,1401,,,085.72,5.04119,61.58853,,,
1253,1401AL30,Gaddevågen,,,,RENSEANLEGG,1401,,,085.72,5.05289,61.59291,,,
1254,1401AL32,Brandsøysundet,,,,RENSEANLEGG,1401,,,085.71,5.14035,61.60261,,,
1255,1401AL50,Kanalen Sør (RD10),,,,RENSEANLEGG,1401,,,085.72,5.05295,61.59246,,,
1256,1401AL51,Silanlegg Stranda,,,,RENSEANLEGG,1401,,,085.72,5.02261,61.6009,,,
1257,1401AL52,Sentrum Eikefjord,,,,RENSEANLEGG,1401,,,085.33,5.45455,61.58357,,,
1258,1411AL00,ORKNES,,,,RENSEANLEGG,1411,,,069.310,5.46714,61.02972,,,
1259,1411AL01,"Byrknes Sone 1, 5, 6",,,,RENSEANLEGG,1411,,,068.4,4.83585,60.89913,,,
1260,1411AL02,HOVDEN,,,,RENSEANLEGG,1411,,,067.62,5.13432,60.84416,,,
1261,1411AL03,TYNNING. BREKKE,,,,RENSEANLEGG,1411,,,069.31Z,5.44918,61.01376,,,
1262,1411AL04,LIHAUG II,,,,RENSEANLEGG,1411,,,068.50,5.13612,60.93592,,,
1263,1411AL08,Eivindvik Sone 1,,,,RENSEANLEGG,1411,,,068.73,5.06253,60.98224,,,
1264,1411AL13,KJELLEVOLD. DALSOYRA,,,,RENSEANLEGG,1411,,,068.50,5.14089,60.93682,,,
1265,1411AL19,Eivindvik Sone 3,,,,RENSEANLEGG,1411,,,068.73,5.0712,60.98234,,,
1266,1411AL22,Eivindvik Sone 7,,,,RENSEANLEGG,1411,,,068.73,5.0802,60.98107,,,
1267,1411AL24,Byrknes Sone 3,,,,RENSEANLEGG,1411,,,068.4,4.83625,60.89761,,,
1268,1412AL02,Hardbakke tettsted,,,,RENSEANLEGG,1412,,,081.8,4.83753,61.07404,,,
1269,1413AL02,Leirvik Sentrum,,,,RENSEANLEGG,1413,,,080.412,5.34438,61.13749,,,
1270,1413AL05,Leirvik U5 - Djupevik,,,,RENSEANLEGG,1413,,,080.412,5.35168,61.12897,,,
1271,1413AL07,Sørbøvåg U1- V/Øen Ky,,,,RENSEANLEGG,1413,,,082.120,5.17177,61.22554,,,
1272,1413AL11,Hyllestad Sentrum U1,,,,RENSEANLEGG,1413,,,082.120,5.29185,61.1716,,,
1273,1416AL00,Lavik - Utslepp M,,,,RENSEANLEGG,1416,,,080.30,5.5126,61.10223,,,
1274,1416AL02,Bjordal Turistsenter,,,,RENSEANLEGG,1416,,,069.721,5.8065,61.06908,,,
1275,1416AL04,Vadheim A,,,,RENSEANLEGG,1416,,,080.11A1,5.83446,61.20677,,,
1276,1416AL05,Vadheim F,,,,RENSEANLEGG,1416,,,080.112,5.82596,61.20792,,,
1277,1416AL12,Kvernhaugen (C D),,,,RENSEANLEGG,1416,,,079.720,6.06078,61.21638,,,
1278,1416AL13,Kyrkjebø - utslepp B,,,,RENSEANLEGG,1416,,,079.720,5.94018,61.16338,,,
1279,1416AL14,Sandvika (A B),,,,RENSEANLEGG,1416,,,079.720,6.05913,61.2141,,,
1280,1416AL22,Kyrkjebø - Utslepp D,,,,RENSEANLEGG,1416,,,079.720,5.95675,61.16511,,,
1281,1416AL23,Vadheim - Utslepp G,,,,RENSEANLEGG,1416,,,080.112,5.82503,61.20789,,,
1282,1416AL24,Vadheim - Utslepp J.,,,,RENSEANLEGG,1416,,,080.210,5.82406,61.20832,,,
1283,1416AL26,Sæbøtangen,,,,RENSEANLEGG,1416,,,079.6,6.07679,61.21448,,,
1284,1417AL06,VIK TETTSTAD,,,,RENSEANLEGG,1417,,,070.7,6.58832,61.08941,,,
1285,1418AL00,Balestrand sentrum (S,,,,RENSEANLEGG,1418,,,079.21,6.53367,61.20138,,,
1286,1418AL02,Vetlefjord Utleiehytt,,,,RENSEANLEGG,1418,,,078.51,6.5648,61.29192,,,
1287,1418AL03,Lunde Ved Dragsvik,,,,RENSEANLEGG,1418,,,079.11,6.55604,61.21582,,,
1288,1419AL00,Leite,,,,RENSEANLEGG,1419,,,077.52,6.82402,61.1875,,,
1289,1419AL02,Hermansverk,,,,RENSEANLEGG,1419,,,077.510,6.85095,61.18277,,,
1290,1419AL11,Hanahaug,,,,RENSEANLEGG,1419,,,077.52,6.79514,61.18276,,,
1291,1420AL01,Slamavsk. Vikane,,,,RENSEANLEGG,1420,,,077.23,7.13027,61.20937,,,
1292,1420AL02,Nornes U8,,,,RENSEANLEGG,1420,,,077.422,6.98545,61.15947,,,
1293,1420AL03,Sogndal Sentrum U1,,,,RENSEANLEGG,1420,,,077.3A,7.10027,61.22826,,,
1294,1420AL04,SLAMAVSK. Rones,,,,RENSEANLEGG,1420,,,077.31,7.1149,61.23296,,,
1295,1420AL07,KAUPANGER U6,,,,RENSEANLEGG,1420,,,077.113,7.23871,61.18434,,,
1296,1421AL00,Høydalen,,,,RENSEANLEGG,1421,,,072.30,7.19595,60.92335,,,
1297,1421AL02,Aurlandsvangen,,,,RENSEANLEGG,1421,,,072.30,7.18952,60.90979,,,
1298,1421AL04,Gudvangen Fjordhotel,,,,RENSEANLEGG,1421,,,071.A1,6.83745,60.87719,,,
1299,1421AL05,Flåm,,,,RENSEANLEGG,1421,,,072.22,7.11828,60.86391,,,
1300,1421AL06,Underdal,,,,RENSEANLEGG,1421,,,072.11,7.10571,60.95156,,,
1301,1421AL08,Klokkargarden,,,,RENSEANLEGG,1421,,,072.30,7.19437,60.91857,,,
1302,1421AL09,Viki (i Flåm),,,,RENSEANLEGG,1421,,,072.22,7.12198,60.86037,,,
1303,1421AL11,Ytstebøen,,,,RENSEANLEGG,1421,,,072.30,7.19272,60.91578,,,
1304,1421AL12,Vatnahalsen Hotell,,,,RENSEANLEGG,1421,,,072.2B7,7.12996,60.74283,,,
1305,1421AL13,Myrdal,,,,RENSEANLEGG,1421,,,072.2B5Z,7.12213,60.73554,,,
1306,1421AL15,Østerbø Fjellstove As,,,,RENSEANLEGG,1421,,,072.E0,7.50572,60.82838,,,
1307,1424AL00,Årdalstangen 1,,,,RENSEANLEGG,1424,,,074.A,7.69787,61.23624,,,
1308,1424AL08,Seimsdalen RA,,,,RENSEANLEGG,1424,,,074.4A,7.65661,61.24257,,,
1309,1426AL05,Dale (utslepp 1 Døsen,,,,RENSEANLEGG,1426,,,075.52,7.45126,61.43926,,,
1310,1426AL09,Viki Fjordcamping,,,,RENSEANLEGG,1426,,,075.60,7.38593,61.3972,,,
1311,1426AL10,Høyheimsvik,,,,RENSEANLEGG,1426,,,075.60,7.39702,61.40002,,,
1312,1426AL12,BOLSTAD CAMPING,,,,RENSEANLEGG,1426,,,075.4A0,7.60067,61.49476,,,
1313,1426AL19,Skjolden,,,,RENSEANLEGG,1426,,,075.A0,7.59995,61.48981,,,
1314,1426AL20,Hafslo/Solvorn,,,,RENSEANLEGG,1426,,,076.3,7.24991,61.30013,,,
1315,1426AL21,Gaupne,,,,RENSEANLEGG,1426,,,076.10,7.29789,61.39747,,,
1316,1426AL31,Lundshaugen - Josvang,,,,RENSEANLEGG,1426,,,076.2Z,7.26703,61.36296,,,
1317,1428AL00,Herland,,,,RENSEANLEGG,1428,,,084.21,4.90485,61.3566,,,
1318,1428AL01,Kvammen,,,,RENSEANLEGG,1428,,,084.520,5.42846,61.4604,,,
1319,1428AL03,GROV,,,,RENSEANLEGG,1428,,,084.21,5.00969,61.32737,,,
1320,1428AL04,Sauesundet,,,,RENSEANLEGG,1428,,,084.21,5.0289,61.32344,,,
1321,1428AL08,Holmedal,,,,RENSEANLEGG,1428,,,083.421,5.1891,61.35951,,,
1322,1428AL10,Askvoll 1 Presteelva,,,,RENSEANLEGG,1428,,,084.111,5.07451,61.3475,,,
1323,1428AL11,Askvoll II v/Gamlekai,,,,RENSEANLEGG,1428,,,084.112,5.05754,61.34855,,,
1324,1428AL12,Ask,,,,RENSEANLEGG,1428,,,084.111,5.08991,61.34409,,,
1325,1428AL14,Stongfjorden,,,,RENSEANLEGG,1428,,,084.1A,5.17507,61.42832,,,
1326,1429AL00,HAUGLAND HELSESPORTSE,,,,RENSEANLEGG,1429,,,082.510,5.33439,61.33386,,,
1327,1429AL02,Dale Tettstad,,,,RENSEANLEGG,1429,,,082.5A1,5.3945,61.36424,,,
1328,1429AL03,BJERGALANDET,,,,RENSEANLEGG,1429,,,082.510,5.38708,61.36359,,,
1329,1429AL04,Straumsnes,,,,RENSEANLEGG,1429,,,082.42,5.19976,61.33644,,,
1330,1429AL05,Grytøyra,,,,RENSEANLEGG,1429,,,082.20,5.03738,61.28593,,,
1331,1429AL12,Flekke Bustadfelt,,,,RENSEANLEGG,1429,,,082.510,5.35886,61.31888,,,
1332,1430AL01,Perhaugen Bustadfelt,,,,RENSEANLEGG,1430,,,083.2Z,5.74951,61.38544,,,
1333,1430AL03,Kapstadvika (Bygstadh,,,,RENSEANLEGG,1430,,,083.220,5.63932,61.37709,,,
1334,1430AL08,Sande,,,,RENSEANLEGG,1430,,,083.B30,5.78207,61.32207,,,
1335,1430AL09,Eidevik,,,,RENSEANLEGG,1430,,,083.2Z,5.66634,61.37839,,,
1336,1430AL11,Yndestad,,,,RENSEANLEGG,1430,,,083.2Z,5.67363,61.38028,,,
1337,1431AL00,Vassenden,,,,RENSEANLEGG,1431,,,084.D4,6.05959,61.47823,,,
1338,1431AL03,Årdal i Jøster,,,,RENSEANLEGG,1431,,,084.E42,6.36476,61.55689,,,
1339,1431AL10,Skei,,,,RENSEANLEGG,1431,,,087.B1C,6.4945,61.58252,,,
